% program   : RTKPOST ver.2.4.2
% inp file  : E:\spp\avca3000.13o
% inp file  : E:\spp\brdc3000.13n
% obs start : 2013/10/27 00:00:00.0 GPST (week1764      0.0s)
% obs end   : 2013/10/27 00:52:30.0 GPST (week1764   3150.0s)
% pos mode  : single
% elev mask : 15.0 deg
% ionos opt : broadcast
% tropo opt : saastamoinen
% ephemeris : broadcast
%
% (x/y/z-ecef=WGS84,Q=1:fix,2:float,3:sbas,4:dgps,5:single,6:ppp,ns=# of satellites)
%  GPST                      x-ecef(m)      y-ecef(m)      z-ecef(m)   Q  ns   sdx(m)   sdy(m)   sdz(m)  sdxy(m)  sdyz(m)  sdzx(m) age(s)  ratio
2013/10/27 00:00:00.000    594061.8847  -4629519.0396   4332583.1357   5   7   3.6414   7.4856   7.6031   3.2456  -4.3846   1.6003   0.00    0.0
2013/10/27 00:00:30.000    594061.8384  -4629519.0495   4332583.0587   5   7   3.6240   7.4670   7.6207   3.2171  -4.4215   1.5682   0.00    0.0
2013/10/27 00:01:00.000    594061.8678  -4629518.9778   4332582.9324   5   7   3.6070   7.4489   7.6384   3.1889  -4.4580   1.5355   0.00    0.0
2013/10/27 00:01:30.000    594061.8652  -4629519.0184   4332582.7209   5   7   3.5902   7.4310   7.6562   3.1611  -4.4940   1.5023   0.00    0.0
2013/10/27 00:02:00.000    594061.8709  -4629519.0235   4332582.5921   5   7   3.5736   7.4136   7.6741   3.1336  -4.5295   1.4684   0.00    0.0
2013/10/27 00:02:30.000    594061.9012  -4629519.0363   4332582.6735   5   7   3.5574   7.3965   7.6921   3.1064  -4.5646   1.4338   0.00    0.0
2013/10/27 00:03:00.000    594061.8987  -4629519.0507   4332582.9624   5   7   3.5413   7.3797   7.7101   3.0796  -4.5991   1.3984   0.00    0.0
2013/10/27 00:03:30.000    594061.9110  -4629518.9819   4332583.1304   5   7   3.5256   7.3632   7.7282   3.0531  -4.6333   1.3622   0.00    0.0
2013/10/27 00:04:00.000    594061.9000  -4629519.0027   4332583.3944   5   7   3.5101   7.3471   7.7463   3.0270  -4.6669   1.3251   0.00    0.0
2013/10/27 00:04:30.000    594061.8679  -4629519.0543   4332583.4814   5   7   3.4949   7.3314   7.7645   3.0012  -4.7001   1.2870   0.00    0.0
2013/10/27 00:05:00.000    594061.8074  -4629519.1040   4332583.3373   5   7   3.4799   7.3159   7.7826   2.9758  -4.7329   1.2478   0.00    0.0
2013/10/27 00:05:30.000    594061.7744  -4629519.1080   4332583.1077   5   7   3.4652   7.3008   7.8007   2.9507  -4.7651   1.2073   0.00    0.0
2013/10/27 00:06:00.000    594061.7648  -4629519.1954   4332582.8501   5   7   3.4507   7.2860   7.8188   2.9260  -4.7969   1.1655   0.00    0.0
2013/10/27 00:06:30.000    594061.8433  -4629519.0844   4332582.6576   5   7   3.4365   7.2715   7.8367   2.9016  -4.8282   1.1222   0.00    0.0
2013/10/27 00:07:00.000    594061.8656  -4629518.9072   4332582.5338   5   7   3.4225   7.2573   7.8546   2.8776  -4.8590   1.0772   0.00    0.0
2013/10/27 00:07:30.000    594061.8229  -4629518.7353   4332582.5933   5   7   3.4088   7.2434   7.8724   2.8540  -4.8893   1.0303   0.00    0.0
2013/10/27 00:08:00.000    594061.7763  -4629518.6453   4332582.8048   5   7   3.3953   7.2298   7.8901   2.8307  -4.9191   0.9811   0.00    0.0
2013/10/27 00:08:30.000    594061.6986  -4629518.6882   4332583.0654   5   7   3.3821   7.2164   7.9076   2.8077  -4.9484   0.9294   0.00    0.0
2013/10/27 00:09:00.000    594061.6487  -4629518.7577   4332583.1857   5   7   3.3691   7.2034   7.9249   2.7851  -4.9771   0.8746   0.00    0.0
2013/10/27 00:09:30.000    594061.6339  -4629518.7148   4332583.0831   5   7   3.3564   7.1905   7.9420   2.7629  -5.0054   0.8162   0.00    0.0
2013/10/27 00:10:00.000    594061.6290  -4629518.7016   4332582.9041   5   7   3.3439   7.1780   7.9589   2.7410  -5.0331   0.7534   0.00    0.0
2013/10/27 00:10:30.000    594061.6726  -4629518.6854   4332582.7342   5   7   3.3317   7.1656   7.9755   2.7194  -5.0603   0.6847   0.00    0.0
2013/10/27 00:11:00.000    594061.7127  -4629518.6837   4332582.6565   5   7   3.3197   7.1535   7.9919   2.6982  -5.0869   0.6084   0.00    0.0
2013/10/27 00:11:30.000    594061.7587  -4629518.6335   4332582.5702   5   7   3.3079   7.1417   8.0080   2.6773  -5.1129   0.5211   0.00    0.0
2013/10/27 00:12:00.000    594061.7696  -4629518.5967   4332582.4782   5   7   3.2964   7.1300   8.0237   2.6568  -5.1384   0.4160   0.00    0.0
2013/10/27 00:12:30.000    594061.7345  -4629518.5899   4332582.4321   5   7   3.2851   7.1185   8.0391   2.6366  -5.1633   0.2729   0.00    0.0
2013/10/27 00:13:00.000    594061.6986  -4629518.5765   4332582.3631   5   7   3.2741   7.1072   8.0541   2.6168  -5.1876  -0.1548   0.00    0.0
2013/10/27 00:13:30.000    594061.6939  -4629518.6430   4332582.4170   5   7   3.2632   7.0961   8.0687   2.5972  -5.2113  -0.3498   0.00    0.0
2013/10/27 00:14:00.000    594061.6886  -4629518.8467   4332582.6106   5   7   3.2526   7.0851   8.0829   2.5780  -5.2344  -0.4697   0.00    0.0
2013/10/27 00:14:30.000    594061.6850  -4629518.8606   4332582.6622   5   7   3.2423   7.0742   8.0967   2.5591  -5.2568  -0.5646   0.00    0.0
2013/10/27 00:15:00.000    594061.6498  -4629518.9396   4332582.6147   5   7   3.2321   7.0635   8.1099   2.5406  -5.2786  -0.6457   0.00    0.0
2013/10/27 00:15:30.000    594061.6563  -4629518.9622   4332582.4077   5   7   3.2222   7.0530   8.1227   2.5223  -5.2997  -0.7175   0.00    0.0
2013/10/27 00:16:00.000    594061.6666  -4629518.9069   4332582.2787   5   7   3.2126   7.0425   8.1349   2.5043  -5.3202  -0.7826   0.00    0.0
2013/10/27 00:16:30.000    594061.6984  -4629518.8432   4332582.1047   5   7   3.2031   7.0321   8.1466   2.4867  -5.3399  -0.8426   0.00    0.0
2013/10/27 00:17:00.000    594061.6100  -4629518.6939   4332581.3454   5   8   3.1138   6.9419   6.5343   2.6169  -4.8540  -2.0685   0.00    0.0
2013/10/27 00:17:30.000    594061.5636  -4629518.6675   4332581.3362   5   8   3.1059   6.9295   6.5454   2.6013  -4.8673  -2.0850   0.00    0.0
2013/10/27 00:18:00.000    594061.5310  -4629518.5949   4332581.1761   5   8   3.0983   6.9173   6.5564   2.5859  -4.8803  -2.1013   0.00    0.0
2013/10/27 00:18:30.000    594061.4937  -4629518.5820   4332581.1714   5   8   3.0908   6.9051   6.5673   2.5706  -4.8930  -2.1173   0.00    0.0
2013/10/27 00:19:00.000    594061.4679  -4629518.6483   4332581.2795   5   8   3.0836   6.8931   6.5780   2.5555  -4.9053  -2.1332   0.00    0.0
2013/10/27 00:19:30.000    594061.4880  -4629518.6461   4332581.4087   5   8   3.0765   6.8812   6.5885   2.5406  -4.9173  -2.1489   0.00    0.0
2013/10/27 00:20:00.000    594061.5828  -4629518.5916   4332581.5231   5   8   3.0695   6.8693   6.5989   2.5258  -4.9289  -2.1644   0.00    0.0
2013/10/27 00:20:30.000    594061.6606  -4629518.5345   4332581.5526   5   8   3.0628   6.8576   6.6091   2.5112  -4.9401  -2.1796   0.00    0.0
2013/10/27 00:21:00.000    594061.6861  -4629518.4950   4332581.4558   5   8   3.0562   6.8459   6.6190   2.4967  -4.9509  -2.1947   0.00    0.0
2013/10/27 00:21:30.000    594061.6734  -4629518.4592   4332581.3331   5   8   3.0498   6.8343   6.6288   2.4823  -4.9614  -2.2095   0.00    0.0
2013/10/27 00:22:00.000    594061.6597  -4629518.5360   4332581.2832   5   8   3.0436   6.8228   6.6384   2.4681  -4.9714  -2.2241   0.00    0.0
2013/10/27 00:22:30.000    594061.6152  -4629518.6443   4332581.2606   5   8   3.0376   6.8113   6.6477   2.4539  -4.9811  -2.2385   0.00    0.0
2013/10/27 00:23:00.000    594061.5756  -4629518.7916   4332581.3440   5   8   3.0317   6.7999   6.6568   2.4398  -4.9903  -2.2527   0.00    0.0
2013/10/27 00:23:30.000    594061.5331  -4629518.7362   4332581.4132   5   8   3.0259   6.7885   6.6656   2.4258  -4.9992  -2.2667   0.00    0.0
2013/10/27 00:24:00.000    594061.5437  -4629518.5329   4332581.3677   5   8   3.0203   6.7771   6.6741   2.4119  -5.0076  -2.2804   0.00    0.0
2013/10/27 00:24:30.000    594061.5583  -4629518.2949   4332581.2975   5   8   3.0149   6.7658   6.6824   2.3981  -5.0156  -2.2940   0.00    0.0
2013/10/27 00:25:00.000    594061.5461  -4629518.2030   4332581.2780   5   8   3.0097   6.7544   6.6904   2.3843  -5.0231  -2.3073   0.00    0.0
2013/10/27 00:25:30.000    594061.5221  -4629518.2481   4332581.3181   5   8   3.0045   6.7431   6.6981   2.3705  -5.0302  -2.3203   0.00    0.0
2013/10/27 00:26:00.000    594061.4589  -4629518.3808   4332581.4145   5   8   2.9996   6.7318   6.7054   2.3568  -5.0369  -2.3332   0.00    0.0
2013/10/27 00:26:30.000    594061.4388  -4629518.4292   4332581.3282   5   8   2.9947   6.7205   6.7125   2.3431  -5.0431  -2.3458   0.00    0.0
2013/10/27 00:27:00.000    594061.4160  -4629518.4322   4332581.2725   5   8   2.9900   6.7092   6.7192   2.3294  -5.0489  -2.3581   0.00    0.0
2013/10/27 00:27:30.000    594061.4889  -4629518.3163   4332581.0663   5   8   2.9855   6.6978   6.7255   2.3158  -5.0541  -2.3703   0.00    0.0
2013/10/27 00:28:00.000    594061.5325  -4629518.2114   4332580.8519   5   8   2.9811   6.6864   6.7315   2.3021  -5.0589  -2.3821   0.00    0.0
2013/10/27 00:28:30.000    594061.5169  -4629518.2002   4332580.8447   5   8   2.9768   6.6750   6.7371   2.2883  -5.0633  -2.3938   0.00    0.0
2013/10/27 00:29:00.000    594061.4763  -4629518.2789   4332580.9993   5   8   2.9726   6.6636   6.7424   2.2746  -5.0671  -2.4051   0.00    0.0
2013/10/27 00:29:30.000    594061.4409  -4629518.3668   4332581.0502   5   8   2.9686   6.6521   6.7472   2.2607  -5.0704  -2.4163   0.00    0.0
2013/10/27 00:30:00.000    594061.4238  -4629518.4549   4332581.0930   5   8   2.9647   6.6405   6.7517   2.2469  -5.0733  -2.4271   0.00    0.0
2013/10/27 00:30:30.000    594061.3933  -4629518.5115   4332581.2117   5   8   2.9609   6.6289   6.7557   2.2329  -5.0756  -2.4377   0.00    0.0
2013/10/27 00:31:00.000    594061.3539  -4629518.5900   4332581.3816   5   8   2.9572   6.6172   6.7593   2.2189  -5.0774  -2.4480   0.00    0.0
2013/10/27 00:31:30.000    594061.3767  -4629518.5560   4332581.4808   5   8   2.9537   6.6054   6.7625   2.2048  -5.0787  -2.4581   0.00    0.0
2013/10/27 00:32:00.000    594061.4259  -4629518.4186   4332581.4350   5   8   2.9502   6.5936   6.7653   2.1905  -5.0795  -2.4679   0.00    0.0
2013/10/27 00:32:30.000    594061.4337  -4629518.3463   4332581.4306   5   8   2.9469   6.5816   6.7676   2.1761  -5.0797  -2.4774   0.00    0.0
2013/10/27 00:33:00.000    594061.4532  -4629518.3429   4332581.5055   5   8   2.9437   6.5696   6.7694   2.1616  -5.0795  -2.4866   0.00    0.0
2013/10/27 00:33:30.000    594061.5113  -4629518.3437   4332581.4273   5   8   2.9406   6.5575   6.7708   2.1470  -5.0787  -2.4956   0.00    0.0
2013/10/27 00:34:00.000    594061.4913  -4629518.4486   4332581.3749   5   8   2.9375   6.5453   6.7718   2.1322  -5.0773  -2.5042   0.00    0.0
2013/10/27 00:34:30.000    594061.4738  -4629518.5406   4332581.3413   5   8   2.9346   6.5330   6.7722   2.1172  -5.0754  -2.5126   0.00    0.0
2013/10/27 00:35:00.000    594061.4611  -4629518.4751   4332581.2154   5   8   2.9318   6.5206   6.7722   2.1020  -5.0729  -2.5206   0.00    0.0
2013/10/27 00:35:30.000    594061.4542  -4629518.3736   4332580.9853   5   8   2.9291   6.5080   6.7717   2.0866  -5.0699  -2.5284   0.00    0.0
2013/10/27 00:36:00.000    594061.4512  -4629518.3318   4332580.9319   5   8   2.9264   6.4954   6.7707   2.0710  -5.0664  -2.5359   0.00    0.0
2013/10/27 00:36:30.000    594061.5016  -4629518.2721   4332580.8837   5   8   2.9239   6.4826   6.7692   2.0552  -5.0623  -2.5431   0.00    0.0
2013/10/27 00:37:00.000    594061.4854  -4629518.3732   4332580.9152   5   8   2.9214   6.4698   6.7672   2.0391  -5.0576  -2.5499   0.00    0.0
2013/10/27 00:37:30.000    594061.4504  -4629518.3913   4332580.9084   5   8   2.9190   6.4568   6.7647   2.0227  -5.0524  -2.5565   0.00    0.0
2013/10/27 00:38:00.000    594061.4389  -4629518.4462   4332580.9909   5   8   2.9167   6.4436   6.7616   2.0061  -5.0466  -2.5627   0.00    0.0
2013/10/27 00:38:30.000    594061.3960  -4629518.4984   4332581.1142   5   8   2.9145   6.4304   6.7581   1.9892  -5.0402  -2.5687   0.00    0.0
2013/10/27 00:39:00.000    594061.3552  -4629518.5384   4332581.1927   5   8   2.9123   6.4170   6.7541   1.9720  -5.0333  -2.5743   0.00    0.0
2013/10/27 00:39:30.000    594061.3272  -4629518.4375   4332581.1319   5   8   2.9102   6.4035   6.7495   1.9545  -5.0258  -2.5796   0.00    0.0
2013/10/27 00:40:00.000    594061.2784  -4629518.2794   4332581.0631   5   8   2.9082   6.3899   6.7444   1.9366  -5.0178  -2.5846   0.00    0.0
2013/10/27 00:40:30.000    594061.2224  -4629518.1862   4332581.0469   5   8   2.9063   6.3762   6.7388   1.9184  -5.0092  -2.5893   0.00    0.0
2013/10/27 00:41:00.000    594061.1911  -4629518.2276   4332581.1781   5   8   2.9044   6.3623   6.7327   1.8999  -5.0000  -2.5936   0.00    0.0
2013/10/27 00:41:30.000    594061.2072  -4629518.2162   4332581.2587   5   8   2.9026   6.3483   6.7260   1.8809  -4.9903  -2.5977   0.00    0.0
2013/10/27 00:42:00.000    594061.2128  -4629518.3171   4332581.3365   5   8   2.9008   6.3341   6.7189   1.8616  -4.9800  -2.6014   0.00    0.0
2013/10/27 00:42:30.000    594061.2136  -4629518.5174   4332581.4051   5   8   2.8991   6.3199   6.7112   1.8418  -4.9692  -2.6048   0.00    0.0
2013/10/27 00:43:00.000    594061.2554  -4629518.5058   4332581.4456   5   8   2.8975   6.3055   6.7030   1.8216  -4.9578  -2.6079   0.00    0.0
2013/10/27 00:43:30.000    594061.3754  -4629518.3550   4332581.2826   5   8   2.8959   6.2910   6.6943   1.8010  -4.9459  -2.6107   0.00    0.0
2013/10/27 00:44:00.000    594061.4183  -4629518.2825   4332581.2185   5   8   2.8944   6.2764   6.6851   1.7799  -4.9334  -2.6131   0.00    0.0
2013/10/27 00:44:30.000    594061.4206  -4629518.2329   4332581.1211   5   8   2.8929   6.2617   6.6754   1.7583  -4.9204  -2.6153   0.00    0.0
2013/10/27 00:45:00.000    594061.4234  -4629518.1037   4332580.9612   5   7   3.0515   6.6988   6.9828   0.8096  -5.3957  -2.1951   0.00    0.0
2013/10/27 00:45:30.000    594061.3860  -4629517.9988   4332580.8199   5   7   3.0502   6.6842   6.9721   0.7614  -5.3822  -2.1973   0.00    0.0
2013/10/27 00:46:00.000    594061.3932  -4629518.0237   4332580.7825   5   7   3.0489   6.6695   6.9609   0.7094  -5.3682  -2.1992   0.00    0.0
2013/10/27 00:46:30.000    594061.4542  -4629518.0920   4332580.9156   5   7   3.0476   6.6546   6.9491   0.6525  -5.3536  -2.2008   0.00    0.0
2013/10/27 00:47:00.000    594061.4793  -4629518.0489   4332580.9107   5   7   3.0465   6.6395   6.9368   0.5895  -5.3384  -2.2020   0.00    0.0
2013/10/27 00:47:30.000    594061.4933  -4629518.0380   4332580.9498   5   7   3.0454   6.6244   6.9239   0.5180  -5.3227  -2.2029   0.00    0.0
2013/10/27 00:48:00.000    594061.5262  -4629518.0711   4332581.0405   5   7   3.0443   6.6091   6.9105   0.4338  -5.3065  -2.2034   0.00    0.0
2013/10/27 00:48:30.000    594061.5524  -4629518.1596   4332581.1621   5   7   3.0434   6.5937   6.8965   0.3275  -5.2897  -2.2036   0.00    0.0
2013/10/27 00:49:00.000    594061.5359  -4629518.1767   4332581.2108   5   7   3.0425   6.5781   6.8821   0.1593  -5.2724  -2.2035   0.00    0.0
2013/10/27 00:49:30.000    594061.4623  -4629518.2496   4332581.2821   5   7   3.0416   6.5625   6.8671  -0.2395  -5.2546  -2.2030   0.00    0.0
2013/10/27 00:50:00.000    594061.4056  -4629518.3050   4332581.3400   5   7   3.0408   6.5467   6.8517  -0.3755  -5.2363  -2.2023   0.00    0.0
2013/10/27 00:50:30.000    594061.3856  -4629518.3203   4332581.4243   5   7   3.0401   6.5309   6.8357  -0.4748  -5.2175  -2.2012   0.00    0.0
2013/10/27 00:51:00.000    594061.3577  -4629518.3067   4332581.4579   5   7   3.0395   6.5149   6.8193  -0.5575  -5.1982  -2.1998   0.00    0.0
2013/10/27 00:51:30.000    594061.2631  -4629518.2980   4332581.4622   5   7   3.0389   6.4989   6.8024  -0.6300  -5.1784  -2.1980   0.00    0.0
2013/10/27 00:52:00.000    594061.1897  -4629518.1721   4332581.4225   5   7   3.0384   6.4828   6.7850  -0.6957  -5.1582  -2.1960   0.00    0.0
2013/10/27 00:52:30.000    594061.1660  -4629518.2021   4332581.4429   5   7   3.0379   6.4666   6.7673  -0.7562  -5.1375  -2.1936   0.00    0.0
