     2.11           OBSERVATION DATA    G (GPS)             RINEX VERSION / TYPE
teqc  2012Jun6      gpsops              20130423 00:26:44UTCPGM / RUN BY / DATE
    30.0000                                                 INTERVAL
     1     1                                                WAVELENGTH FACT L1/2
     7    L1    L2    P1    P2    C1    S1    S2            # / TYPES OF OBSERV
Linux 2.4.21-27.ELsmp|Opteron|gcc -static|Linux x86_64|=+   COMMENT
     2.10           OBSERVATION DATA    GPS                 COMMENT
soc2rnx ver 1.20    gpsops              23-Apr-2013 00:26:43COMMENT
S1, if present, is the SNR for the C/A data stream on L1.   COMMENT
 SNR is mapped to RINEX snr flag value [1,4-9]              COMMENT
    SNR:   >316  >100  >31.6  >10  >3.2    >0 bad=0         COMMENT
L1 & L2:      9     8     7     6     5     4     1         COMMENT
GGN                 SHANGHAI OBSERVATORY                    OBSERVER / AGENCY
429                 AOAD/M_T        JPLA                    ANT # / TYPE
 -2831733.5830  4675665.9580  3275369.4100                  APPROX POSITION XYZ
        0.0814        0.0000        0.0000                  ANTENNA: DELTA H/E/N
UC2200524020        ASHTECH UZ-12       CQ00                REC # / TYPE / VERS
SHAO                                                        MARKER NAME
21605M002                                                   MARKER NUMBER
                                                            COMMENT
This data is provided as a public service by NASA/JPL.      COMMENT
No warranty is expressed or implied regarding suitability   COMMENT
for use.  For further information, contact:                 COMMENT
Dave Stowers, NASA/JPL m/s 238-600                          COMMENT
4800 Oak Grove Drive, Pasadena CA 91109 USA                 COMMENT
                                                            COMMENT
Forced Modulo Decimation to 30 seconds                      COMMENT
  2013     4    22     0     0    0.0000000     GPS         TIME OF FIRST OBS
                                                            END OF HEADER
 13  4 22  0  0  0.0000000  0  9G15G02G05G26G21G18G29G09G24
 107080262.62947  83439157.30947  20376702.2914   20376706.5234   20376702.2194
        56.000          52.000
 129208527.11447 100681937.38847  24587587.9944   24587595.2784   24587588.8324
        43.000          37.000
 119103191.88447  92807675.45647  22664589.0444   22664595.0934   22664588.9294
        51.000          46.000
 112618896.20147  87754973.41347  21430672.5994   21430677.8604   21430672.8214
        54.000          47.000
 118661518.24547  92463515.65547  22580538.0514   22580542.1994   22580537.8804
        50.000          45.000
 127321593.31247  99211602.80547  24228514.5524   24228519.8384   24228515.2964
        45.000          39.000
 123380511.71747  96140635.38447  23478546.5604   23478552.4854   23478546.1934
        48.000          42.000
 111695241.36847  87035232.37747  21254912.9084   21254918.2284   21254912.5574
        53.000          48.000
 115475666.87847  89981014.28647  21974307.9234   21974315.1254   21974307.0374
        52.000          47.000
 13  4 22  0  0 30.0000000  0  9G15G02G05G26G21G18G29G09G24
 107094976.05647  83450622.29847  20379502.2704   20379506.2804   20379501.7954
        56.000          52.000
 129323100.76747 100771215.39747  24609392.2524   24609398.1364   24609392.2164
        42.000          37.000
 119157465.78947  92849966.77647  22674917.0704   22674922.1164   22674917.0634
        51.000          46.000
 112703075.96547  87820567.98247  21446691.4054   21446697.0164   21446691.3824
        53.000          48.000
 118581368.55047  92401061.37847  22565285.5514   22565290.6864   22565285.7374
        50.000          45.000
 127249984.04547  99155803.42447  24214887.0134   24214893.6294   24214887.9974
        45.000          39.000
 123453076.47947  96197179.30047  23492355.1314   23492361.2924   23492355.3154
        48.000          42.000
 111723269.25947  87057072.26047  21260246.0354   21260251.6804   21260246.1484
        54.000          48.000
 115385477.04147  89910736.51647  21957145.1964   21957152.5494   21957144.6234
        52.000          48.000
 13  4 22  0  1  0.0000000  0  9G15G02G05G26G21G18G29G09G24
 107110026.64347  83462350.01347  20382366.2964   20382370.1754   20382365.8954
        56.000          52.000
 129437744.00447 100860547.61347  24631209.1614   24631213.9054   24631208.3834
        44.000          38.000
 119211912.07347  92892392.40847  22685278.0494   22685283.4494   22685277.6754
        51.000          46.000
 112787474.10347  87886332.70947  21462751.8494   21462758.0394   21462751.5894
        53.000          48.000
 118501520.26047  92338841.95647  22550090.9774   22550095.6824   22550091.5244
        50.000          45.000
 127178320.80747  99099961.97647  24201250.0584   24201256.6684   24201250.9434
        46.000          39.000
 123525796.59847  96253844.27047  23506193.9354   23506199.7274   23506194.0784
        48.000          42.000
 111751941.95947  87079414.60647  21265702.4174   21265707.6494   21265702.3134
        53.000          48.000
 115295597.37347  89840700.43447  21940041.6054   21940048.9524   21940041.1514
        53.000          48.000
 13  4 22  0  1 30.0000000  0  9G15G02G05G26G21G18G29G09G24
 107125414.26047  83474340.34947  20385294.4464   20385298.5074   20385294.1524
        56.000          52.000
 129552455.31747 100949932.91847  24653037.4264   24653042.4184   24653037.9384
        43.000          38.000
 119266532.59047  92934953.80747  22695672.1314   22695677.5574   22695671.7504
        51.000          46.000
 112872089.08647  87952266.40647  21478853.5744   21478859.9234   21478853.4394
        53.000          48.000
 118421976.94647  92276860.17147  22534954.4804   22534959.2114   22534954.7214
        50.000          45.000
 127106605.11347  99044079.67347  24187602.9804   24187609.3304   24187603.4424
        46.000          39.000
 123598669.79747  96310628.50447  23520061.3174   23520067.4844   23520061.7344
        48.000          42.000
 111781259.56647  87102259.47147  21271281.2084   21271286.6894   21271281.2054
        54.000          48.000
 115206032.15647  89770909.37847  21922997.7044   21923005.3524   21922997.4674
        52.000          48.000
 13  4 22  0  2  0.0000000  0  9G15G02G05G26G21G18G29G09G24
 107141136.10647  83486591.12747  20388286.1564   20388290.2834   20388285.7924
        56.000          52.000
 129667231.10847 101039368.43747  24674878.3774   24674884.0994   24674879.3074
        46.000          39.000
 119321326.40347  92977650.25347  22706098.7054   22706104.5104   22706098.3794
        51.000          46.000
 112956917.14847  88018366.14247  21494996.0254   21495002.3364   21494995.9234
        53.000          48.000
 118342739.29047  92215116.57647  22519875.4504   22519881.0504   22519875.8024
        50.000          45.000
 127034835.74547  98988155.52147  24173946.0504   24173951.6614   24173945.9724
        46.000          39.000
 123671691.58147  96367528.53547  23533957.1104   23533962.8874   23533957.4204
        47.000          42.000
 111811219.83147  87125605.11847  21276982.7854   21276988.3204   21276982.9174
        54.000          48.000
 115116782.65147  89701364.34247  21906013.9114   21906021.7914   21906013.2824
        52.000          48.000
 13  4 22  0  2 30.0000000  0  9G15G02G05G26G21G18G29G09G24
 107157190.25547  83499100.84147  20391341.2214   20391345.3184   20391340.8774
        56.000          52.000
 129782068.68047 101128852.09347  24696731.4304   24696737.6854   24696732.3544
        45.000          38.000
 119376293.64047  93020481.83547  22716558.8754   22716563.9474   22716558.4644
        51.000          45.000
 113041955.51347  88084629.74647  21511178.5904   21511184.6274   21511178.6534
        53.000          48.000
 118263810.38647  92153613.56047  22504856.0124   22504861.2874   22504856.1604
        50.000          45.000
 126963012.79947  98932189.61347  24160278.5794   24160284.1944   24160279.4474
        45.000          39.000
 123744858.91647  96424541.95547  23547880.3334   23547886.3374   23547880.1744
        47.000          43.000
 111841821.26547  87149450.36847  21282805.7064   21282811.7504   21282805.7414
        53.000          48.000
 115027851.52647  89632067.38547  21889091.0944   21889098.7994   21889090.5414
        52.000          48.000
 13  4 22  0  3  0.0000000  0  9G15G02G05G26G21G18G29G09G24
 107173574.76647  83511867.99247  20394459.2144   20394463.1474   20394458.7834
        56.000          52.000
 129896965.43547 101218381.86947  24718595.5134   24718602.0934   24718596.4634
        44.000          38.000
 119431434.04047  93063448.34947  22727052.0364   22727056.7924   22727051.8664
        51.000          46.000
 113127201.19247  88151054.88947  21527400.4614   21527406.3074   21527400.4034
        53.000          48.000
 118185191.98747  92092352.49047  22489895.8744   22489900.5524   22489896.1164
        51.000          46.000
 126891136.26247  98876181.93847  24146600.9894   24146606.7684   24146601.7924
        46.000          40.000
 123818167.98047  96481665.82847  23561830.6364   23561836.4754   23561830.4934
        48.000          42.000
 111873062.37647  87173794.06947  21288751.0334   21288756.5374   21288750.9864
        53.000          48.000
 114939240.84047  89563020.11647  21872229.0774   21872236.6874   21872228.4204
        53.000          48.000
 13  4 22  0  3 30.0000000  0  9G15G02G05G26G21G18G29G09G24
 107190290.93447  83524893.57547  20397640.2254   20397644.3204   20397639.8904
        56.000          52.000
 130011921.08347 101307957.50247  24740470.7014   24740477.4754   24740471.5244
        43.000          37.000
 119486750.72647  93106552.22047  22737578.0644   22737583.4974   22737577.8254
        50.000          46.000
 113212654.19147  88217641.59847  21543661.3874   21543667.1334   21543661.2704
        53.000          47.000
 118106888.52047  92031336.82647  22474995.4464   22475000.0074   22474995.8744
        51.000          46.000
 126819208.72647  98820134.54447  24132913.8064   24132920.3034   24132913.8354
        44.000          40.000
 123891618.49347  96538899.92747  23575807.2974   23575813.7094   23575807.1214
        47.000          42.000
 111904944.61447  87198637.35447  21294817.6124   21294824.2494   21294817.8354
        53.000          48.000
 114850956.02847  89494226.78547  21855429.0264   21855436.6614   21855428.4964
        52.000          48.000
 13  4 22  0  4  0.0000000  0  9G15G02G05G26G21G18G29G09G24
 107207334.97047  83538174.63747  20400883.6264   20400887.8824   20400883.3464
        56.000          52.000
 130126931.66247 101397575.96347  24762357.1304   24762363.6544   24762357.1714
        42.000          36.000
 119542241.81447  93149792.01447  22748137.7774   22748142.9944   22748137.2254
        51.000          45.000
 113298310.17047  88284386.46047  21559960.9544   21559966.8354   21559960.5854
        53.000          47.000
 118028901.67447  91970567.88147  22460154.8044   22460159.6894   22460155.2274
        51.000          46.000
 126747228.89447  98764046.39947  24119215.4594   24119222.5464   24119215.9994
        45.000          40.000
 123965205.45647  96596240.35547  23589810.8114   23589816.5834   23589810.5444
        47.000          42.000
 111937465.11147  87223977.98347  21301005.9214   21301012.6094   21301005.9244
        53.000          48.000
 114762998.17747  89425688.21847  21838691.0374   21838698.8094   21838690.4504
        53.000          48.000
 13  4 22  0  4 30.0000000  0  9G15G02G05G26G21G18G29G09G24
 107224706.37047  83551710.79047  20404189.4494   20404193.4404   20404189.1024
        56.000          52.000
 130241995.88647 101487236.17447  24784252.3114   24784258.8924   24784253.0914
        39.000          34.000
 119597908.68047  93193168.76747  22758730.9174   22758735.5774   22758730.5804
        50.000          45.000
 113384167.52147  88351288.23547  21576299.4314   21576305.1694   21576299.3474
        53.000          47.000
 117951234.72947  91910048.21647  22445375.1864   22445379.9864   22445375.4764
        51.000          46.000
 126675197.68047  98707918.23347  24105508.3404   24105516.2144   24105508.4844
        45.000          40.000
 124038926.64147  96653685.36247  23603839.3414   23603846.0254   23603839.0304
        46.000          42.000
 111970623.23947  87249815.47147  21307316.1054   21307322.0444   21307316.2054
        53.000          48.000
 114675371.05647  89357407.36547  21822016.4054   21822023.9614   21822015.9454
        53.000          48.000
 13  4 22  0  5  0.0000000  0  9G15G02G05G26G21G18G29G09G24
 107242402.74647  83565500.17247  20407556.7794   20407560.9704   20407556.4314
        56.000          52.000
 130357110.04547 101576935.28947  24806158.9394   24806166.3384   24806159.2914
        40.000          34.000
 119653750.51047  93236681.85447  22769356.8274   22769362.8264   22769356.4274
        50.000          45.000
 113470222.72947  88418344.18247  21592675.2254   21592680.8394   21592675.1804
        53.000          47.000
 117873888.43947  91849778.40547  22430656.6614   22430661.3974   22430657.4184
        51.000          46.000
 126603114.33647  98651749.41647  24091791.1114   24091798.5204   24091790.9234
        45.000          40.000
 124112777.90647  96711231.74147  23617892.5124   23617899.6064   23617892.2604
        47.000          42.000
 112004416.82147  87276148.11847  21313746.7494   21313752.5914   21313746.6274
        53.000          48.000
 114588075.96047  89289385.23947  21805404.7674   21805412.1884   21805404.4184
        53.000          48.000
 13  4 22  0  5 30.0000000  0  8G15G05G26G21G18G29G09G24
 107260423.21547  83579542.09347  20410985.8994   20410990.1084   20410985.4444
        56.000          52.000
 119709768.51847  93280332.20747  22780016.7254   22780022.5954   22780016.6344
        50.000          45.000
 113556474.18147  88485553.05347  21609088.3994   21609093.8354   21609088.4214
        53.000          47.000
 117796866.16247  91789761.07847  22415999.4844   22416004.5004   22415999.9744
        51.000          46.000
 126530980.38147  98595541.14347  24078064.8744   24078071.7034   24078064.5964
        44.000          40.000
 124186757.06147  96768877.76647  23631970.3554   23631976.5434   23631969.6574
        46.000          42.000
 112038845.46747  87302975.60547  21320298.6154   21320304.0754   21320298.8084
        54.000          48.000
 114501116.86947  89221624.92847  21788856.8214   21788864.3864   21788856.4164
        53.000          48.000
 13  4 22  0  6  0.0000000  0  8G15G05G26G21G18G29G09G24
 107278764.25547  83593833.80647  20414476.1074   20414480.3084   20414475.6504
        56.000          52.000
 119765961.16147  93324118.65747  22790710.0114   22790715.1534   22790709.4714
        49.000          45.000
 113642917.67847  88552911.56247  21625537.9244   21625543.2384   21625537.7054
        53.000          47.000
 117720168.88147  91729996.98747  22401404.6044   22401409.4074   22401405.0604
        51.000          46.000
 126458794.19347  98539292.19647  24064328.1554   24064334.8004   24064328.5804
        45.000          40.000
 124260859.55647  96826619.87847  23646072.0484   23646077.9354   23646071.8764
        47.000          42.000
 112073906.23847  87330295.66547  21326970.5524   21326976.0484   21326970.8384
        53.000          48.000
 114414494.46147  89154126.96847  21772372.8834   21772380.6674   21772372.3774
        53.000          48.000
 13  4 22  0  6 30.0000000  0  8G15G05G26G21G18G29G09G24
 107297426.62147  83608375.90947  20418027.3764   20418031.5134   20418027.0564
        56.000          52.000
 119822331.03047  93368043.20447  22801436.5894   22801441.9734   22801435.9534
        49.000          45.000
 113729553.12647  88620419.65847  21642024.3904   21642029.5324   21642024.2504
        53.000          47.000
 117643801.63947  91670490.07747  22386872.2734   22386877.3194   22386872.8234
        51.000          46.000
 126386558.64647  98483004.79347  24050581.8454   24050588.7814   24050582.2024
        45.000          40.000
 124335084.50447  96884457.42947  23660196.5184   23660202.5134   23660196.5344
        47.000          42.000
 112109600.24647  87358109.14847  21333762.4214   21333768.4834   21333762.2574
        54.000          48.000
 114328214.27747  89086895.67547  21755954.2584   21755961.9334   21755953.9394
        53.000          48.000
 13  4 22  0  7  0.0000000  0  8G15G05G26G21G18G29G09G24
 107316406.85647  83623165.69347  20421639.3304   20421643.2664   20421638.9704
        56.000          52.000
 119878876.42647  93412104.51647  22812197.4244   22812202.9244   22812196.8874
        50.000          45.000
 113816375.79447  88688073.63147  21658545.8084   21658551.4914   21658545.5864
        52.000          47.000
 117567764.43247  91611240.32847  22372402.8914   22372408.0284   22372403.1654
        51.000          46.000
 126314271.53347  98426677.21847  24036825.6064   24036832.6114   24036825.6254
        45.000          40.000
 124409426.43547  96942386.11347  23674343.4784   23674349.1874   23674342.9914
        47.000          42.000
 112145923.78847  87386413.17047  21340675.0474   21340680.3414   21340675.3844
        54.000          48.000
 114242276.55547  89019931.23447  21739601.0044   21739608.3374   21739600.3504
        52.000          48.000
 13  4 22  0  7 30.0000000  0  8G15G05G26G21G18G29G09G24
 107335706.95647  83638204.72047  20425312.1144   20425315.8254   20425311.9384
        56.000          52.000
 119935601.12347  93456305.53547  22822991.8964   22822997.1584   22822991.2914
        51.000          45.000
 113903386.89547  88755874.43247  21675103.2444   21675109.6024   21675103.1634
        52.000          47.000
 117492063.63747  91552252.73247  22357997.4774   22358002.6764   22357997.8984
        51.000          46.000
 126241936.91147  98370312.61847  24023060.8984   24023067.8204   24023061.0374
        45.000          40.000
 124483886.22347  97000406.65747  23688512.4734   23688518.9354   23688511.8444
        48.000          42.000
 112182879.24447  87415209.59847  21347707.4664   21347712.5144   21347707.8054
        53.000          48.000
 114156687.63647  88953238.57747  21723314.0954   21723321.4684   21723313.4104
        53.000          48.000
 13  4 22  0  8  0.0000000  0  8G15G05G26G21G18G29G09G24
 107355321.18747  83653488.52247  20429044.6314   20429048.3494   20429044.4234
        56.000          52.000
 119992501.37347  93500643.35947  22833819.3664   22833824.7754   22833819.0694
        50.000          45.000
 113990579.83447  88823816.92147  21691696.0064   21691701.9524   21691695.8884
        53.000          47.000
 117416697.17447  91493525.63747  22343655.8204   22343660.7104   22343655.9684
        51.000          46.000
 126169550.90647  98313907.97047  24009286.1634   24009293.6624   24009287.2634
        45.000          40.000
 124558456.46047  97058513.24647  23702703.2164   23702709.5834   23702703.1374
        47.000          42.000
 112220460.94147  87444494.02247  21354858.4654   21354864.3284   21354858.3804
        53.000          47.000
 114071446.27447  88886816.76047  21707093.0194   21707100.5734   21707092.4394
        52.000          48.000
 13  4 22  0  8 30.0000000  0  8G15G05G26G21G18G29G09G24
 107375250.08047  83669017.52047  20432836.5444   20432840.7194   20432836.1784
        56.000          52.000
 120049579.17747  93545119.51447  22844680.7324   22844686.3414   22844680.0204
        50.000          45.000
 114077954.12647  88891900.72847  21708322.8204   21708329.0384   21708322.7894
        52.000          47.000
 117341669.36647  91435062.43147  22329378.4414   22329383.3644   22329378.7844
        52.000          46.000
 126097116.12747  98257465.34947  23995502.5314   23995509.7984   23995502.4754
        46.000          40.000
 124633136.01247  97116705.02647  23716914.3324   23716921.0874   23716913.5474
        48.000          42.000
 112258669.39447  87474266.81147  21362129.3244   21362135.3304   21362129.5014
        53.000          47.000
 113986556.86247  88820669.18647  21690938.9254   21690946.5734   21690938.5274
        52.000          48.000
 13  4 22  0  9  0.0000000  0  8G15G05G26G21G18G29G09G24
 107395491.61747  83684790.13347  20436688.1964   20436692.6444   20436687.6264
        55.000          52.000
 120106834.74147  93589734.18747  22855576.2114   22855582.1644   22855576.0804
        50.000          45.000
 114165507.08947  88960123.74747  21724983.6554   21724989.8124   21724983.6844
        53.000          47.000
 117266982.85047  91376865.16047  22315165.8244   22315170.5544   22315166.4634
        51.000          46.000
 126024632.78547  98200984.86147  23981709.9324   23981716.9074   23981710.4314
        46.000          40.000
 124707921.65247  97174979.48247  23731145.3914   23731152.2704   23731145.1364
        47.000          42.000
 112297503.24847  87504526.93147  21369519.1514   21369524.7714   21369519.2714
        53.000          47.000
 113902022.06447  88754797.92647  21674852.6414   21674860.1364   21674852.0264
        52.000          48.000
 13  4 22  0  9 30.0000000  0  8G15G05G26G21G18G29G09G24
 107416045.21547  83700805.91147  20440599.4974   20440603.8754   20440599.0264
        56.000          52.000
 120164269.28747  93634488.32847  22866506.1954   22866511.6984   22866505.5904
        50.000          45.000
 114253237.39347  89028484.96647  21741678.3634   21741684.3754   21741678.2754
        52.000          47.000
 117192641.07147  91318936.51447  22301019.0574   22301023.7684   22301019.5074
        52.000          46.000
 125952101.82147  98144467.28047  23967907.8254   23967914.3254   23967908.2644
        47.000          40.000
 124782811.40947  97233335.07047  23745396.9154   23745403.1564   23745396.2464
        48.000          42.000
 112336961.90447  87535273.91147  21377027.9194   21377033.9854   21377027.6294
        53.000          48.000
 113817845.28447  88689205.65347  21658834.1084   21658841.9834   21658833.4484
        52.000          48.000
 13  4 22  0 10  0.0000000  0  8G15G05G26G21G18G29G09G24
 107436909.32147  83717063.64747  20444570.1294   20444574.2364   20444569.7174
        56.000          52.000
 120221882.96947  93679382.06847  22877469.4494   22877474.5184   22877469.2354
        50.000          45.000
 114341142.37347  89096982.27947  21758406.2674   21758412.1294   21758406.2484
        53.000          46.000
 117118646.12747  91261278.12847  22286938.5734   22286943.3724   22286938.8654
        51.000          46.000
 125879523.83247  98087913.06947  23954096.2254   23954103.4994   23954096.6604
        46.000          40.000
 124857801.89647  97291769.14947  23759667.0344   23759673.3794   23759667.0764
        47.000          42.000
 112377043.43047  87566506.23147  21384655.5114   21384661.4894   21384655.4564
        53.000          48.000
 113734029.40947  88623894.60147  21642884.5974   21642892.1004   21642883.9844
        52.000          48.000
 13  4 22  0 10 30.0000000  0  8G15G05G26G21G18G29G09G24
 107458079.31147  83733559.72347  20448598.6384   20448602.9444   20448598.2264
        56.000          52.000
 120279672.83047  93724413.07847  22888466.6134   22888471.7814   22888466.4674
        50.000          45.000
 114429216.73547  89165611.59147  21775166.4754   21775171.6884   21775166.5404
        53.000          47.000
 117044997.55847  91203889.65347  22272923.7814   22272928.6034   22272924.3574
        52.000          46.000
 125806896.47147  98031320.37647  23940275.5694   23940282.6144   23940275.7634
        44.000          40.000
 124932887.32647  97350277.21547  23773955.2384   23773961.6484   23773955.0464
        47.000          42.000
 112417743.32747  87598220.38747  21392400.3534   21392406.0474   21392400.6274
        53.000          48.000
 113650573.97047  88558864.41047  21627003.5704   21627010.9324   21627003.0484
        52.000          48.000
 13  4 22  0 11  0.0000000  0  8G15G05G26G21G18G29G09G24
 107479556.96447  83750295.54347  20452685.7814   20452690.0434   20452685.4614
        56.000          52.000
 120337642.73447  93769584.38047  22899497.9274   22899503.1234   22899497.5674
        50.000          45.000
 114517461.56147  89234373.72847  21791958.5494   21791964.3394   21791958.5374
        52.000          46.000
 116971701.18547  91146775.60447  22258975.8194   22258980.6184   22258976.4824
        52.000          46.000
 125734222.93947  97974691.71147  23926446.3454   23926453.4274   23926446.2314
        46.000          40.000
 125008067.87847  97408859.37047  23788262.1194   23788268.1964   23788261.4234
        47.000          42.000
 112459063.65647  87630418.00747  21400263.4004   21400269.0314   21400263.3984
        53.000          48.000
 113567485.19347  88494119.92447  21611192.4354   21611199.7484   21611191.6634
        53.000          48.000
 13  4 22  0 11 30.0000000  0  8G15G05G26G21G18G29G09G24
 107501341.11447  83767270.18947  20456831.1874   20456835.3084   20456830.7384
        56.000          52.000
 120395793.51847  93814896.62947  22910563.3294   22910568.9464   22910562.9024
        50.000          45.000
 114605874.85247  89303267.13047  21808782.8474   21808788.9194   21808782.3784
        52.000          46.000
 116898760.14747  91089938.44547  22245095.3824   22245100.2704   22245095.6324
        52.000          46.000
 125661504.32147  97918027.90747  23912608.6574   23912615.1744   23912608.9364
        46.000          40.000
 125083341.10847  97467513.76847  23802586.3804   23802592.6874   23802586.1454
        47.000          42.000
 112501003.33747  87663098.23247  21408244.4314   21408250.5214   21408244.7364
        53.000          48.000
 113484765.80847  88429663.26947  21595451.4094   21595458.8584   21595450.7554
        53.000          49.000
 13  4 22  0 12  0.0000000  0  8G15G05G26G21G18G29G09G24
 107523427.31647  83784480.20247  20461033.9354   20461038.2994   20461033.5634
        56.000          52.000
 120454122.20447  93860347.49147  22921663.2374   22921669.1404   22921662.9694
        50.000          45.000
 114694451.35947  89372287.71847  21825638.3754   21825644.3304   21825638.1574
        52.000          46.000
 116826173.89647  91033377.73747  22231282.7244   22231287.5664   22231282.9814
        52.000          46.000
 125588738.09647  97861326.99147  23898761.6274   23898768.2704   23898761.6664
        45.000          40.000
 125158701.16647  97526235.83647  23816926.3334   23816933.2634   23816926.2714
        47.000          41.000
 112543557.81247  87696257.53147  21416342.2634   21416348.2794   21416342.4674
        53.000          47.000
 113402415.90247  88365494.53747  21579780.8064   21579788.3704   21579780.4444
        53.000          49.000
 13  4 22  0 12 30.0000000  0  8G15G05G26G21G18G29G09G24
 107545816.27647  83801926.12947  20465294.3134   20465298.8434   20465293.8654
        56.000          52.000
 120512631.41347  93905939.06547  22932797.5004   22932803.3064   22932797.0574
        50.000          45.000
 114783190.76047  89441435.23947  21842525.2864   21842531.3834   21842525.1584
        52.000          46.000
 116753946.71547  90977096.83047  22217538.3134   22217543.2094   22217538.5714
        52.000          46.000
 125515926.76247  97804590.94647  23884906.0734   23884912.9304   23884906.0604
        46.000          41.000
 125234146.79547  97585024.54147  23831282.5374   23831289.4164   23831281.9514
        45.000          41.000
 112586727.23947  87729896.00547  21424556.6724   21424562.9564   21424556.9194
        53.000          47.000
 113320440.10147  88301617.30547  21564181.2874   21564188.7624   21564180.8624
        53.000          49.000
 13  4 22  0 13  0.0000000  0  8G15G05G26G21G18G29G09G24
 107568504.20347  83819605.02747  20469611.8554   20469616.0324   20469611.5824
        56.000          52.000
 120571319.30247  93951669.84747  22943964.9494   22943970.9844   22943964.1504
        49.000          45.000
 114872088.90047  89510706.44047  21859442.3404   21859448.2674   21859442.2574
        52.000          46.000
 116682079.14247  90921096.13047  22203862.5854   22203867.4434   22203863.0704
        52.000          46.000
 125443069.19847  97747818.87547  23871041.4064   23871048.5264   23871041.8944
        47.000          41.000
 125309673.14747  97643876.19947  23845654.2654   23845661.3754   23845653.3334
        45.000          40.000
 112630508.30847  87764011.06547  21432888.0854   21432894.1534   21432888.2474
        53.000          47.000
 113238838.83347  88238031.91847  21548653.0844   21548660.4014   21548652.4944
        53.000          49.000
 13  4 22  0 13 30.0000000  0  8G15G05G26G21G18G29G09G24
 107591492.13947  83837517.68547  20473986.2844   20473990.5004   20473985.8444
        56.000          52.000
 120630188.96647  93997542.25147  22955167.0014   22955173.3004   22955166.2014
        49.000          44.000
 114961146.01447  89580101.51847  21876389.5684   21876395.3484   21876389.5984
        53.000          46.000
 116610576.32447  90865379.66447  22190256.0354   22190260.9084   22190256.2164
        52.000          47.000
 125370167.97147  97691012.77547  23857168.5394   23857175.5294   23857168.2304
        46.000          40.000
 125385280.02747  97702790.59247  23860041.8704   23860049.1134   23860040.7514
        45.000          41.000
 112674902.04447  87798603.53447  21441336.0614   21441341.9644   21441336.2874
        53.000          47.000
 113157617.79147  88174742.81347  21533197.0734   21533204.4144   21533196.4124
        53.000          49.000
 13  4 22  0 14  0.0000000  0  8G15G05G26G21G18G29G09G24
 107614775.07047  83855660.21647  20478417.1014   20478421.2144   20478416.8644
        56.000          52.000
 120689236.86047  94043553.56647  22966404.1134   22966409.3114   22966403.5504
        49.000          44.000
 115050356.22447  89649615.89847  21893365.7134   21893371.5304   21893365.6624
        52.000          46.000
 116539436.89647  90809946.36647  22176718.3704   22176723.4474   22176718.5784
        52.000          46.000
 125297220.39647  97634170.57047  23843287.0854   23843293.8344   23843287.3544
        45.000          40.000
 125460960.66047  97761762.44947  23874443.7864   23874450.9074   23874443.3994
        45.000          40.000
 112719903.04347  87833669.20147  21449899.7874   21449905.5834   21449899.8194
        54.000          47.000
 113076775.95047  88111749.19847  21517813.3094   21517820.8304   21517812.9074
        53.000          49.000
 13  4 22  0 14 30.0000000  0  8G15G05G26G21G18G29G09G24
 107638356.08847  83874035.02147  20482904.3094   20482908.5654   20482903.9834
        55.000          52.000
 120748468.20147  94089707.81047  22977675.6744   22977680.9364   22977675.1184
        50.000          44.000
 115139722.12047  89719251.57147  21910370.8804   21910377.4594   21910370.9384
        52.000          46.000
 116468668.51747  90754802.19647  22163251.8844   22163256.8034   22163252.2324
        52.000          47.000
 125224231.49847  97577296.16747  23829397.5294   23829404.1614   23829397.3354
        46.000          41.000
 125536716.90647  97820793.21947  23888860.0564   23888867.1074   23888859.8094
        46.000          41.000
 112765514.57947  87869210.61747  21458579.4344   21458585.1874   21458579.7844
        53.000          47.000
 112996320.45447  88049056.63047  21502503.1494   21502510.6434   21502502.7014
        53.000          49.000
 13  4 22  0 15  0.0000000  0  8G15G05G26G21G18G29G09G24
 107662230.19547  83892638.20747  20487447.1994   20487451.5784   20487446.8504
        56.000          52.000
 120807879.51047  94136002.28747  22988981.1494   22988986.7074   22988980.8184
        49.000          44.000
 115229237.56147  89789003.77947  21927405.0044   21927411.5754   21927404.6754
        51.000          45.000
 116398269.68547  90699945.98247  22149855.3804   22149860.0434   22149855.7154
        52.000          46.000
 125151198.20447  97520387.16947  23815500.1484   23815507.3094   23815500.6824
        46.000          41.000
 125612542.12947  97879877.74947  23903289.8014   23903296.4094   23903289.1464
        46.000          41.000
 112811731.11747  87905223.46147  21467374.2404   21467380.0214   21467374.1804
        53.000          47.000
 112916250.36647  87986664.36947  21487266.3784   21487273.8654   21487265.8104
        53.000          49.000
 13  4 22  0 15 30.0000000  0  8G15G05G26G21G18G29G09G24
 107686397.57647  83911469.91647  20492046.2864   20492050.5554   20492045.9514
        56.000          52.000
 120867472.63747  94182438.45447  23000320.9964   23000327.3704   23000320.1194
        49.000          44.000
 115318902.27847  89858872.30847  21944467.9714   21944474.1094   21944468.1304
        52.000          46.000
 116328244.65347  90645381.04347  22136529.9734   22136534.5254   22136530.3754
        52.000          47.000
 125078122.83247  97463445.37347  23801593.7144   23801601.5054   23801593.4564
        46.000          40.000
 125688435.03047  97939015.01947  23917731.8014   23917738.4514   23917731.6884
        47.000          41.000
 112858552.64647  87941707.72047  21476283.9594   21476289.7384   21476284.0414
        53.000          47.000
 112836569.99747  87924575.78547  21472103.8384   21472111.0504   21472103.3744
        53.000          49.000
 13  4 22  0 16  0.0000000  0  8G15G05G26G21G18G29G09G24
 107710855.41647  83930527.96647  20496700.3484   20496704.6894   20496699.9004
        55.000          52.000
 120927247.10247  94229015.91447  23011696.0484   23011702.0884   23011695.7974
        49.000          44.000
 115408712.80847  89928854.45147  21961558.5314   21961564.6984   21961558.6944
        52.000          45.000
 116258594.66147  90591108.35147  22123276.1344   22123280.7844   22123276.6424
        52.000          47.000
 125005004.64147  97406470.20447  23787679.6114   23787686.7514   23787680.0744
        46.000          40.000
 125764391.49647  97998201.82247  23932186.1394   23932192.6324   23932185.9074
        47.000          41.000
 112905976.33547  87978661.20247  21485308.5364   21485314.0904   21485308.4804
        53.000          47.000
 112757280.84747  87862792.05147  21457015.5074   21457022.9354   21457014.9324
        53.000          49.000
 13  4 22  0 16 30.0000000  0  8G15G05G26G21G18G29G09G24
 107735601.61747  83949810.70347  20501409.5114   20501413.7314   20501409.1074
        56.000          52.000
 120987202.64447  94275734.45947  23023105.8214   23023110.9654   23023105.6504
        49.000          44.000
 115498666.61247  89998948.23847  21978676.0334   21978682.2964   21978676.0724
        51.000          45.000
 116189321.82447  90537129.55047  22110093.7604   22110098.7914   22110094.4634
        52.000          47.000
 124931844.16947  97349462.10147  23773757.9154   23773764.9664   23773758.1224
        45.000          40.000
 125840408.43347  98057435.72047  23946651.7834   23946658.2474   23946651.3094
        48.000          41.000
 112953999.94347  88016082.15847  21494447.2034   21494452.9404   21494447.4064
        53.000          47.000
 112678385.41047  87801315.10947  21442002.3944   21442009.6944   21442001.8634
        53.000          49.000
 13  4 22  0 17  0.0000000  0  8G15G05G26G21G18G29G09G24
 107760634.13447  83969316.54847  20506173.2104   20506177.3294   20506172.9404
        56.000          52.000
 121047338.70647  94322593.69147  23034548.7644   23034554.2854   23034548.6404
        49.000          44.000
 115588760.86947  90069151.46847  21995820.6124   21995826.9094   21995820.5104
        51.000          45.000
 116120428.13347  90483446.18047  22096983.7594   22096988.8384   22096984.0514
        53.000          47.000
 124858641.10347  97292420.80247  23759827.7264   23759835.2144   23759828.1364
        47.000          40.000
 125916482.33347  98116714.03547  23961128.0694   23961134.2304   23961128.0614
        47.000          41.000
 113002621.43847  88053968.99447  21503699.6524   21503705.3894   21503699.7574
        53.000          47.000
 112599885.34047  87740146.24447  21427064.1424   21427071.3904   21427063.8004
        53.000          49.000
 13  4 22  0 17 30.0000000  0  8G15G05G26G21G18G29G09G24
 107785955.08747  83989047.14647  20510991.6244   20510995.7574   20510991.2304
        56.000          52.000
 121107659.05747  94369596.49147  23046027.9174   23046033.0994   23046027.1454
        50.000          45.000
 115678996.44447  90139464.82347  22012992.0334   22012998.3514   22012991.9254
        51.000          45.000
 116051918.75847  90430062.26647  22083947.2064   22083951.6744   22083947.6674
        53.000          47.000
 124785398.86647  97235348.96447  23745890.5454   23745896.6984   23745890.8414
        46.000          41.000
 125992613.01847  98176036.60347  23975614.8744   23975621.7914   23975614.8714
        46.000          41.000
 113051841.75647  88092322.46047  21513066.0014   21513071.5464   21513066.1954
        53.000          47.000
 112521786.34147  87679289.89847  21412202.3014   21412209.3284   21412201.7724
        53.000          49.000
 13  4 22  0 18  0.0000000  0  8G15G05G26G21G18G29G09G24
 107811559.58047  84008998.68847  20515864.0714   20515868.1424   20515863.8254
        56.000          52.000
 121168160.54547  94416740.44947  23057541.2004   23057546.3924   23057540.8604
        50.000          45.000
 115769368.14747  90209884.25147  22030189.3864   22030195.6374   22030189.1564
        51.000          45.000
 115983793.30547  90376977.51547  22070983.0694   22070987.5574   22070983.7204
        53.000          47.000
 124712115.66347  97178245.21647  23731945.7684   23731951.7254   23731946.1454
        47.000          41.000
 126068794.57447  98235398.76347  23990112.3674   23990118.3784   23990112.1624
        46.000          41.000
 113101656.29047  88131138.95247  21522545.0684   21522550.6324   21522545.1814
        53.000          47.000
 112444088.18747  87618745.90247  21397416.4224   21397424.0334   21397415.8124
        53.000          49.000
 13  4 22  0 18 30.0000000  0  8G15G05G26G21G18G29G09G24
 107837448.59447  84029171.92847  20520790.4714   20520794.7854   20520790.0934
        56.000          52.000
 121228846.06747  94464027.79747  23069088.8104   23069094.5394   23069088.4034
        50.000          44.000
 115859876.10347  90280409.85347  22047412.4384   22047418.7464   22047412.1844
        52.000          45.000
 115916056.34147  90324195.48547  22058093.0244   22058097.9304   22058093.5854
        52.000          47.000
 124638793.88547  97121111.42147  23717992.7654   23717998.7924   23717993.2744
        46.000          41.000
 126145026.61647  98294800.29647  24004618.4974   24004624.9574   24004618.3334
        47.000          41.000
 113152065.13047  88170418.53447  21532137.3084   21532143.5144   21532137.5064
        53.000          47.000
 112366795.56947  87558517.91247  21382708.2574   21382715.9964   21382707.7104
        54.000          49.000
 13  4 22  0 19  0.0000000  0  8G15G05G26G21G18G29G09G24
 107863618.70847  84049564.20947  20525770.5694   20525774.7304   20525770.3504
        56.000          52.000
 121289714.29447  94511457.52647  23080671.6044   23080677.2284   23080671.3254
        49.000          44.000
 115950516.82447  90351038.89747  22064660.6554   22064667.5184   22064660.5814
        51.000          45.000
 115848709.31647  90271717.30247  22045277.1904   22045282.3454   22045277.5154
        52.000          47.000
 124565433.21947  97063947.31747  23704032.8324   23704038.6544   23704033.4034
        48.000          41.000
 126221304.72347  98354237.74147  24019133.9234   24019140.5694   24019133.9234
        47.000          41.000
 113203065.41647  88210158.98647  21541842.4194   21541849.0064   21541842.5314
        53.000          47.000
 112289909.81647  87498606.95347  21368077.5404   21368085.2234   21368076.9344
        54.000          49.000
 13  4 22  0 19 30.0000000  0  8G15G05G26G21G18G29G09G24
 107890067.04647  84070173.29047  20530803.4424   20530807.8724   20530803.1194
        55.000          52.000
 121350764.04947  94559028.69447  23092289.2874   23092294.8104   23092288.8534
        49.000          44.000
 116041286.71747  90421768.59047  22081933.5114   22081940.5114   22081933.2424
        51.000          45.000
 115781752.79047  90219543.40447  22032535.8344   22032540.7554   22032536.0014
        52.000          47.000
 124492032.34547  97006751.87447  23690065.1054   23690070.8084   23690065.8684
        47.000          41.000
 126297624.30547  98413707.46347  24033657.0264   24033663.9104   24033657.3944
        45.000          40.000
 113254653.42747  88250357.41347  21551659.5794   21551666.2614   21551659.7334
        53.000          47.000
 112213431.74847  87439013.67747  21353524.4434   21353531.7774   21353523.9504
        54.000          49.000
 13  4 22  0 20  0.0000000  0  8G15G05G26G21G18G29G09G24
 107916794.85547  84091000.14147  20535889.5324   20535893.9404   20535889.1694
        56.000          52.000
 121411998.53547  94606743.80647  23103941.6814   23103947.3914   23103940.9654
        48.000          44.000
 116132186.25947  90492599.32647  22099231.1994   22099237.6394   22099230.8584
        51.000          45.000
 115715191.93147  90167677.81547  22019869.7264   22019874.4504   22019869.8424
        53.000          47.000
 124418594.60647  96949527.72847  23676090.0684   23676096.2104   23676090.7194
        47.000          41.000
 126373985.38147  98473209.51747  24048188.0444   24048195.1264   24048187.2344
        46.000          41.000
 113306830.21347  88291014.62747  21561588.7414   21561595.2684   21561588.8074
        53.000          47.000
 112137366.80947  87379742.31447  21339049.6674   21339057.1024   21339049.1334
        54.000          49.000
 13  4 22  0 20 30.0000000  0  8G15G05G26G21G18G29G09G24
 107943799.35447  84112042.58947  20541028.1974   20541032.5864   20541027.8134
        55.000          51.000
 121473416.09147  94654601.58147  23115628.7714   23115634.6494   23115628.3234
        49.000          44.000
 116223211.92847  90563528.35047  22116552.9854   22116559.6154   22116552.6904
        51.000          45.000
 115649027.87947  90116121.42247  22007279.1374   22007283.9494   22007279.6564
        52.000          47.000
 124345119.35347  96892274.34347  23662107.8624   23662114.3774   23662107.9754
        47.000          41.000
 126450383.69447  98532740.62647  24062726.1414   24062733.1234   24062726.3954
        45.000          41.000
 113359592.33047  88332127.93847  21571628.9174   21571635.1744   21571628.8404
        53.000          47.000
 112061716.15247  87320793.77747  21324653.6354   21324661.1704   21324653.2484
        54.000          49.000
 13  4 22  0 21  0.0000000  0  8G15G05G26G21G18G29G09G24
 107971077.63247  84133298.37347  20546219.0674   20546223.5104   20546218.5534
        55.000          51.000
 121535015.88247  94702601.35547  23127350.8954   23127356.9164   23127349.9494
        49.000          44.000
 116314360.39447  90634553.04447  22133898.1564   22133905.1684   22133898.0444
        51.000          46.000
 115583261.33447  90064874.77647  21994764.1104   21994769.2994   21994764.6924
        52.000          47.000
 124271606.15347  96834991.40147  23648118.5514   23648125.7784   23648119.1834
        47.000          41.000
 126526815.22947  98592297.60847  24077270.2234   24077277.6394   24077270.1474
        46.000          40.000
 113412936.58047  88373694.84947  21581779.6714   21581785.9564   21581779.9004
        52.000          47.000
 111986480.75447  87262168.81247  21310336.7804   21310344.2664   21310336.2234
        54.000          50.000
 13  4 22  0 21 30.0000000  0  8G15G05G26G21G18G29G09G24
 107998630.87247  84154768.41247  20551462.2674   20551466.8164   20551461.8664
        55.000          51.000
 121596801.09947  94750745.60447  23139108.8574   23139114.3184   23139108.6954
        50.000          44.000
 116405632.23147  90705673.86747  22151267.1564   22151273.7694   22151267.1604
        52.000          46.000
 115517897.80747  90013942.16647  21982325.8764   21982331.0784   21982326.4784
        52.000          47.000
 124198058.25647  96777681.43447  23634122.9174   23634129.9394   23634123.6284
        47.000          41.000
 126603279.49947  98651880.11647  24091821.0304   24091828.0314   24091820.7284
        44.000          40.000
 113466863.53347  88415715.82347  21592041.6954   21592048.2224   21592041.5124
        53.000          47.000
 111911666.00247  87203871.62047  21296100.1804   21296107.3764   21296099.4694
        54.000          49.000
 13  4 22  0 22  0.0000000  0  8G15G05G26G21G18G29G09G24
 108026455.26347  84176449.74147  20556757.2634   20556761.4824   20556757.0664
        55.000          51.000
 121658769.58647  94799032.68447  23150901.3754   23150906.5274   23150900.8874
        50.000          44.000
 116497023.15747  90776887.47847  22168657.6694   22168664.3494   22168657.5424
        50.000          45.000
 115452937.35347  89963323.65247  21969964.1884   21969969.1704   21969964.4304
        52.000          47.000
 124124474.23347  96720343.26747  23620120.7774   23620126.5524   23620121.6884
        47.000          41.000
 126679771.43847  98711484.17947  24106377.0044   24106384.1364   24106377.3274
        46.000          41.000
 113521368.81547  88458187.43447  21602413.4824   21602420.1884   21602413.4644
        53.000          47.000
 111837272.14147  87145902.39847  21281943.3384   21281950.5684   21281942.8864
        54.000          49.000
 13  4 22  0 22 30.0000000  0  8G15G05G26G21G18G29G09G24
 108054550.03847  84198341.76847  20562103.7944   20562107.5594   20562103.5834
        56.000          51.000
 121720922.10047  94847463.13247  23162728.4794   23162733.5664   23162728.0314
        49.000          44.000
 116588531.56547  90848192.66747  22186071.5164   22186077.4494   22186071.1054
        51.000          45.000
 115388382.76747  89913021.39947  21957680.1374   21957684.8294   21957680.4584
        52.000          47.000
 124050854.88247  96662977.59647  23606111.6284   23606117.1974   23606112.5024
        48.000          42.000
 126756288.39247  98771107.74047  24120937.9264   24120944.6864   24120937.5724
        45.000          41.000
 113576451.15547  88501108.71347  21612895.5164   21612901.8934   21612895.6074
        53.000          47.000
 111763302.22047  87088263.51847  21267867.2694   21267874.6614   21267866.6844
        54.000          50.000
 13  4 22  0 23  0.0000000  0  8G15G05G26G21G18G29G09G24
 108082912.84047  84220442.64647  20567500.9674   20567505.0034   20567500.7524
        56.000          51.000
 121783258.25847  94896036.68647  23174590.4924   23174596.2814   23174589.8224
        49.000          44.000
 116680154.83847  90919587.34447  22203506.9384   22203513.2054   22203507.0864
        51.000          45.000
 115324235.91147  89863036.86347  21945473.3914   21945478.3714   21945473.6774
        53.000          47.000
 123977200.63847  96605584.75447  23592095.7604   23592101.4524   23592096.3284
        47.000          41.000
 126832827.36147  98830748.44747  24135503.4934   24135508.6944   24135503.3424
        45.000          40.000
 113632108.04747  88544477.68847  21623486.4664   21623492.9184   21623486.1414
        52.000          47.000
 111689758.09147  87030956.42147  21253872.4444   21253879.7954   21253872.1554
        55.000          50.000
 13  4 22  0 23 30.0000000  0  8G15G05G26G21G18G29G09G24
 108111543.00047  84242751.85347  20572949.0634   20572953.2644   20572948.6414
        56.000          52.000
 121845779.00247  94944754.07547  23186487.6614   23186493.7694   23186487.3194
        49.000          44.000
 116771891.53747  90991070.39147  22220963.6024   22220969.9294   22220963.5174
        50.000          45.000
 115260499.65547  89813372.27447  21933344.8154   21933349.5384   21933345.1074
        53.000          47.000
 123903512.75447  96548165.69147  23578073.2204   23578078.7334   23578073.1294
        48.000          42.000
 126909385.98747  98890404.46647  24150072.1004   24150077.1664   24150072.0344
        45.000          40.000
 113688337.84747  88588293.08147  21634186.9464   21634193.0374   21634187.1104
        53.000          47.000
 111616642.48147  86973983.23847  21239958.9394   21239966.3634   21239958.5254
        54.000          50.000
 13  4 22  0 24  0.0000000  0  8G15G05G26G21G18G29G09G24
 108140440.58447  84265269.43947  20578448.0604   20578452.4084   20578447.7334
        56.000          52.000
 121908486.17447  94993616.73347  23198420.5854   23198426.4904   23198419.7674
        49.000          45.000
 116863741.30847  91062641.55647  22238442.1764   22238448.5074   22238442.1244
        51.000          45.000
 115197177.65547  89764030.47247  21921294.8544   21921299.4754   21921295.2244
        52.000          47.000
 123829793.60647  96490722.26847  23564044.7484   23564050.6854   23564045.0064
        48.000          41.000
 126985963.04747  98950074.84847  24164643.9184   24164649.8354   24164643.6234
        45.000          40.000
 113745140.23347  88632554.64847  21644996.4944   21645002.4294   21644996.5744
        53.000          47.000
 111543959.61647  86917347.25647  21226127.8314   21226135.1134   21226127.2994
        55.000          50.000
 13  4 22  0 24 30.0000000  0  8G15G05G26G21G18G29G09G24
 108169602.48247  84287992.98747  20583997.3114   20584001.7834   20583996.8234
        55.000          51.000
 121971378.31947  95042623.52447  23210389.1854   23210394.7704   23210388.5974
        50.000          45.000
 116955700.52547  91134298.02047  22255941.7274   22255947.7424   22255941.6664
        51.000          45.000
 115134271.40447  89715012.63547  21909324.0284   21909328.6454   21909324.5794
        52.000          47.000
 123756042.01547  96433253.55947  23550009.8984   23550016.4124   23550010.5744
        47.000          41.000
 127062554.20347  99009756.23947  24179218.9004   24179225.1774   24179218.3744
        44.000          40.000
 113802511.22547  88677259.29647  21655914.2604   21655919.7174   21655914.4954
        53.000          47.000
 111471710.60347  86861049.34347  21212379.3684   21212386.6224   21212378.7604
        55.000          50.000
 13  4 22  0 25  0.0000000  0  8G15G05G26G21G18G29G09G24
 108199023.86047  84310918.73347  20589595.9844   20589600.4284   20589595.5954
        55.000          51.000
 122034452.66747  95091772.29247  23222391.5624   23222397.3254   23222391.2834
        49.000          44.000
 117047763.98747  91206035.70047  22273460.7464   22273466.9664   22273460.5564
        51.000          44.000
 115071779.75947  89666317.87147  21897432.2794   21897436.9474   21897432.8044
        52.000          47.000
 123682255.58247  96375757.69447  23535968.8594   23535975.0814   23535969.7334
        48.000          41.000
 127139153.26147  99069443.78447  24193795.0184   24193802.2894   24193795.0454
        44.000          41.000
 113860445.92747  88722403.19047  21666938.7274   21666944.4194   21666938.9494
        53.000          47.000
 111399894.48247  86805088.75847  21198713.1504   21198720.5804   21198712.7274
        55.000          50.000
 13  4 22  0 25 30.0000000  0  8G15G05G26G21G18G29G09G24
 108228708.54547  84334049.64747  20595244.6444   20595249.3084   20595244.1954
        55.000          51.000
 122097714.36547  95141067.06047  23234429.6524   23234435.5104   23234428.9664
        48.000          44.000
 117139934.77447  91277857.01947  22291000.3084   22291006.2924   22291000.4174
        51.000          44.000
 115009709.72647  89617951.63747  21885620.7054   21885625.6944   21885621.2754
        52.000          47.000
 123608440.75347  96318239.69647  23521922.3454   23521928.2984   23521922.8664
        48.000          42.000
 127215762.44247  99129139.20447  24208373.1694   24208380.5804   24208372.4964
        44.000          41.000
 113918947.28247  88767988.62747  21678070.9004   21678076.7414   21678070.9774
        52.000          47.000
 111328518.85747  86749471.40947  21185130.7614   21185138.2574   21185130.3204
        55.000          50.000
 13  4 22  0 26  0.0000000  0  8G15G05G26G21G18G29G09G24
 108258651.12547  84357381.51947  20600942.2574   20600947.1824   20600941.9054
        55.000          51.000
 122161159.96147  95190505.10047  23246502.5254   23246509.2144   23246502.1364
        49.000          44.000
 117232206.95947  91349757.34047  22308559.6264   22308565.3654   22308559.4084
        51.000          45.000
 114948059.92047  89569912.85447  21873888.9914   21873894.2454   21873889.3764
        52.000          47.000
 123534593.92547  96260696.78447  23507870.0634   23507875.8214   23507870.3034
        48.000          42.000
 127292375.07747  99188837.31347  24222951.8074   24222959.2454   24222951.4724
        44.000          40.000
 113978009.03047  88814010.74747  21689309.7604   21689315.8274   21689309.8534
        52.000          47.000
 111257582.03247  86694195.98747  21171631.9234   21171639.2944   21171631.2634
        55.000          50.000
 13  4 22  0 26 30.0000000  0  8G15G05G26G21G18G29G09G24
 108288851.74147  84380914.46147  20606689.5904   20606694.1534   20606689.1984
        55.000          51.000
 122224791.37347  95240087.94647  23258611.5884   23258617.9934   23258611.0174
        50.000          44.000
 117324580.56347  91421736.69747  22326137.4474   22326144.3374   22326137.4394
        50.000          45.000
 114886834.74947  89522204.95447  21862238.3224   21862243.1684   21862238.8644
        53.000          47.000
 123460718.02147  96203131.18547  23493812.0254   23493817.2204   23493812.5784
        48.000          42.000
 127368990.29647  99248537.45947  24237531.9014   24237537.8654   24237531.7544
        46.000          40.000
 114037630.79147  88860469.24847  21700655.2374   21700661.4574   21700655.2384
        52.000          47.000
 111187088.39247  86639265.90247  21158217.4774   21158224.7154   21158216.8864
        55.000          50.000
 13  4 22  0 27  0.0000000  0  8G15G05G26G21G18G29G09G24
 108319310.35247  84404648.43947  20612485.7354   20612490.1064   20612485.3624
        55.000          51.000
 122288610.17247  95289816.82147  23270756.2914   23270762.1054   23270756.0034
        49.000          44.000
 117417054.88047  91493794.51947  22343734.6264   22343741.9164   22343734.6684
        51.000          45.000
 114826037.72747  89474830.66647  21850669.0744   21850673.6424   21850669.3684
        53.000          47.000
 123386814.75147  96145544.27747  23479748.3014   23479754.0494   23479749.0934
        48.000          42.000
 127445606.42947  99308238.33547  24252111.7034   24252117.9234   24252111.7434
        45.000          40.000
 114097811.75147  88907363.46347  21712107.7614   21712113.5944   21712107.7764
        53.000          47.000
 111117041.44947  86584683.88747  21144888.0294   21144895.0814   21144887.5254
        55.000          50.000
 13  4 22  0 27 30.0000000  0  8G15G05G26G21G18G29G09G24
 108350023.23347  84428580.55547  20618330.2444   20618334.5304   20618329.9324
        55.000          51.000
 122352614.06047  95339689.88747  23282935.8484   23282942.1084   23282935.5344
        49.000          44.000
 117509625.52347  91565927.38847  22361350.6354   22361357.8244   22361350.6324
        51.000          45.000
 114765668.45547  89427789.68347  21839181.1254   21839185.5774   21839181.4244
        53.000          47.000
 123312882.42547  96087934.71647  23465679.7964   23465685.4094   23465680.1254
        48.000          42.000
 127522218.34047  99367935.89747  24266689.7224   24266696.9404   24266689.4474
        45.000          40.000
 114158547.37547  88954689.89247  21723665.6044   21723671.0744   21723665.8114
        53.000          47.000
 111047441.51747  86530450.20447  21131643.4274   21131650.4604   21131642.8584
        55.000          50.000
 13  4 22  0 28  0.0000000  0  8G15G05G26G21G18G29G09G24
 108380988.55847  84452709.37747  20624222.8234   20624226.9494   20624222.5434
        55.000          51.000
 122416802.88147  95389707.07347  23295150.1024   23295156.8684   23295149.7984
        49.000          44.000
 117602290.47147  91638133.76147  22378984.6114   22378990.6544   22378984.7204
        51.000          44.000
 114705729.08347  89381083.70047  21827775.1644   21827779.5884   21827775.6694
        53.000          47.000
 123238921.78447  96030303.09347  23451605.5064   23451610.7624   23451605.6594
        49.000          42.000
 127598823.14747  99427627.93347  24281267.1454   24281274.4864   24281267.0144
        44.000          40.000
 114219835.50647  89002446.82947  21735328.4184   21735333.9624   21735328.4944
        52.000          47.000
 110978290.53147  86476566.34547  21118484.4774   21118491.5304   21118483.9704
        55.000          50.000
 13  4 22  0 28 30.0000000  0  8G15G05G26G21G18G29G09G24
 108412203.50747  84477032.70647  20630162.8934   20630166.9424   20630162.6474
        55.000          51.000
 122481176.18647  95439868.02047  23307400.0964   23307406.9244   23307399.6434
        49.000          44.000
 117695046.46047  91710411.08347  22396635.2434   22396641.0224   22396635.6204
        51.000          44.000
 114646220.84147  89334713.65547  21816451.0284   21816455.7014   21816451.5034
        52.000          47.000
 123164932.35447  95972649.02947  23437525.5884   23437531.0504   23437526.3314
        48.000          42.000
 127675416.59547  99487311.08047  24295841.9984   24295849.6684   24295841.0914
        43.000          40.000
 114281672.25947  89050631.27147  21747095.4644   21747101.1544   21747095.3524
        52.000          46.000
 110909589.17047  86423032.84647  21105411.1324   21105418.0574   21105410.5024
        56.000          50.000
 13  4 22  0 29  0.0000000  0  8G15G05G26G21G18G29G09G24
 108443670.63247  84501552.53947  20636150.8284   20636154.9794   20636150.4804
        55.000          51.000
 122545737.29147  95490175.27647  23319686.1344   23319692.5514   23319685.3234
        50.000          44.000
 117787895.58747  91782760.97347  22414303.3904   22414309.3664   22414303.2834
        50.000          44.000
 114587149.90647  89288684.37247  21805209.9814   21805214.8834   21805210.3894
        52.000          47.000
 123090919.18047  95914976.49447  23423441.1474   23423447.2174   23423441.9084
        48.000          42.000
 127752000.23847  99546986.61647  24310415.9134   24310422.4594   24310415.7584
        45.000          40.000
 114344059.28147  89099244.48747  21758967.4024   21758973.0704   21758967.5004
        53.000          47.000
 110841344.18247  86369854.96747  21092424.5054   21092431.5044   21092424.0184
        55.000          50.000
 13  4 22  0 29 30.0000000  0  8G15G05G26G21G18G29G09G24
 108475385.56447  84526265.46247  20642185.7624   20642190.1964   20642185.4254
        55.000          51.000
 122610483.94947  95540627.13247  23332007.7324   23332013.0854   23332007.5184
        49.000          44.000
 117880832.99847  91855179.64947  22431989.0184   22431994.9764   22431988.9154
        50.000          44.000
 114528515.70047  89242995.38847  21794052.2224   21794057.2394   21794052.6604
        53.000          47.000
 123016880.02547  95857283.69047  23409351.9724   23409357.8994   23409352.3864
        48.000          41.000
 127828568.06747  99606649.81647  24324986.7734   24324993.1674   24324986.7174
        44.000          40.000
 114406991.68247  89148282.68847  21770943.1734   21770949.0154   21770943.1844
        52.000          47.000
