% program   : RTKPOST ver.2.4.2
% inp file  : E:\spp\shao1120.13o
% inp file  : E:\spp\brdc1120.13n
% obs start : 2013/04/22 00:00:00.0 GPST (week1737  86400.0s)
% obs end   : 2013/04/22 11:39:30.0 GPST (week1737 128370.0s)
% pos mode  : single
% elev mask : 15.0 deg
% ionos opt : broadcast
% tropo opt : saastamoinen
% ephemeris : broadcast
%
% (lat/lon/height=WGS84/ellipsoidal,Q=1:fix,2:float,3:sbas,4:dgps,5:single,6:ppp,ns=# of satellites)
%  GPST                  latitude(deg) longitude(deg)  height(m)   Q  ns   sdn(m)   sde(m)   sdu(m)  sdne(m)  sdeu(m)  sdun(m) age(s)  ratio
2013/04/22 00:00:00.000   31.099628769  121.200455572    24.2748   5   8   2.8579   2.2460   6.8850  -0.2386  -2.3792  -2.0308   0.00    0.0
2013/04/22 00:00:30.000   31.099633212  121.200453980    24.5659   5   8   2.8598   2.2458   6.8888  -0.2494  -2.3639  -2.0392   0.00    0.0
2013/04/22 00:01:00.000   31.099634806  121.200457813    24.4615   5   8   2.8617   2.2456   6.8920  -0.2602  -2.3483  -2.0474   0.00    0.0
2013/04/22 00:01:30.000   31.099637289  121.200457006    24.2100   5   8   2.8636   2.2455   6.8946  -0.2710  -2.3323  -2.0553   0.00    0.0
2013/04/22 00:02:00.000   31.099635969  121.200454491    24.4280   5   8   2.8655   2.2454   6.8968  -0.2819  -2.3158  -2.0628   0.00    0.0
2013/04/22 00:02:30.000   31.099632598  121.200455433    24.9130   5   8   2.8674   2.2453   6.8984  -0.2929  -2.2989  -2.0700   0.00    0.0
2013/04/22 00:03:00.000   31.099631130  121.200454879    25.1331   5   8   2.8694   2.2454   6.8995  -0.3038  -2.2816  -2.0770   0.00    0.0
2013/04/22 00:03:30.000   31.099631383  121.200457350    23.6165   5   8   2.8714   2.2454   6.9001  -0.3148  -2.2639  -2.0836   0.00    0.0
2013/04/22 00:04:00.000   31.099634602  121.200459540    22.9349   5   8   2.8734   2.2456   6.9002  -0.3257  -2.2458  -2.0899   0.00    0.0
2013/04/22 00:04:30.000   31.099635200  121.200454639    22.6177   5   8   2.8754   2.2457   6.8998  -0.3367  -2.2272  -2.0959   0.00    0.0
2013/04/22 00:05:00.000   31.099635346  121.200457113    21.8052   5   8   2.8774   2.2460   6.8989  -0.3477  -2.2083  -2.1015   0.00    0.0
2013/04/22 00:05:30.000   31.099633143  121.200452173    22.4927   5   8   2.8795   2.2463   6.8976  -0.3587  -2.1889  -2.1069   0.00    0.0
2013/04/22 00:06:00.000   31.099633816  121.200456674    23.1448   5   8   2.8816   2.2467   6.8957  -0.3697  -2.1691  -2.1120   0.00    0.0
2013/04/22 00:06:30.000   31.099635391  121.200459574    22.6248   5   8   2.8837   2.2472   6.8934  -0.3806  -2.1489  -2.1167   0.00    0.0
2013/04/22 00:07:00.000   31.099636916  121.200453095    22.0452   5   8   2.8858   2.2477   6.8907  -0.3916  -2.1283  -2.1212   0.00    0.0
2013/04/22 00:07:30.000   31.099635623  121.200454259    21.4639   5   8   2.8879   2.2484   6.8875  -0.4025  -2.1072  -2.1253   0.00    0.0
2013/04/22 00:08:00.000   31.099636662  121.200458723    22.7555   5   8   2.8901   2.2491   6.8839  -0.4134  -2.0857  -2.1292   0.00    0.0
2013/04/22 00:08:30.000   31.099635759  121.200456299    22.3641   5   8   2.8923   2.2498   6.8798  -0.4243  -2.0639  -2.1328   0.00    0.0
2013/04/22 00:09:00.000   31.099633970  121.200456029    24.4170   5   8   2.8945   2.2507   6.8753  -0.4351  -2.0415  -2.1361   0.00    0.0
2013/04/22 00:09:30.000   31.099633490  121.200456713    24.3421   5   8   2.8967   2.2517   6.8705  -0.4459  -2.0188  -2.1391   0.00    0.0
2013/04/22 00:10:00.000   31.099635946  121.200455446    23.7230   5   8   2.8989   2.2528   6.8652  -0.4567  -1.9956  -2.1418   0.00    0.0
2013/04/22 00:10:30.000   31.099634689  121.200453856    23.3741   5   8   2.9012   2.2539   6.8596  -0.4674  -1.9720  -2.1443   0.00    0.0
2013/04/22 00:11:00.000   31.099636078  121.200456194    22.5959   5   8   2.9035   2.2552   6.8535  -0.4781  -1.9480  -2.1464   0.00    0.0
2013/04/22 00:11:30.000   31.099638902  121.200457956    23.2630   5   8   2.9058   2.2565   6.8472  -0.4888  -1.9235  -2.1484   0.00    0.0
2013/04/22 00:12:00.000   31.099639755  121.200455330    22.9595   5   8   2.9082   2.2580   6.8404  -0.4994  -1.8986  -2.1500   0.00    0.0
2013/04/22 00:12:30.000   31.099635660  121.200453276    22.7082   5   8   2.9105   2.2595   6.8334  -0.5099  -1.8732  -2.1514   0.00    0.0
2013/04/22 00:13:00.000   31.099629455  121.200456974    21.4645   5   8   2.9129   2.2612   6.8260  -0.5204  -1.8474  -2.1525   0.00    0.0
2013/04/22 00:13:30.000   31.099629943  121.200453913    21.0676   5   8   2.9153   2.2629   6.8183  -0.5309  -1.8211  -2.1534   0.00    0.0
2013/04/22 00:14:00.000   31.099633880  121.200453735    21.8112   5   8   2.9178   2.2648   6.8103  -0.5412  -1.7943  -2.1540   0.00    0.0
2013/04/22 00:14:30.000   31.099637097  121.200453505    21.6666   5   8   2.9202   2.2668   6.8020  -0.5516  -1.7670  -2.1544   0.00    0.0
2013/04/22 00:15:00.000   31.099636740  121.200457908    22.7363   5   8   2.9227   2.2689   6.7934  -0.5618  -1.7392  -2.1546   0.00    0.0
2013/04/22 00:15:30.000   31.099640102  121.200457186    21.4957   5   8   2.9252   2.2711   6.7846  -0.5721  -1.7109  -2.1545   0.00    0.0
2013/04/22 00:16:00.000   31.099638268  121.200455876    22.8434   5   8   2.9278   2.2734   6.7755  -0.5822  -1.6821  -2.1542   0.00    0.0
2013/04/22 00:16:30.000   31.099639810  121.200453691    22.6504   5   8   2.9303   2.2759   6.7662  -0.5923  -1.6528  -2.1537   0.00    0.0
2013/04/22 00:17:00.000   31.099640529  121.200455638    22.4587   5   8   2.9329   2.2784   6.7566  -0.6023  -1.6228  -2.1530   0.00    0.0
2013/04/22 00:17:30.000   31.099636252  121.200457107    22.5551   5   8   2.9356   2.2811   6.7469  -0.6123  -1.5923  -2.1520   0.00    0.0
2013/04/22 00:18:00.000   31.099634635  121.200458549    23.4456   5   8   2.9382   2.2839   6.7369  -0.6222  -1.5612  -2.1509   0.00    0.0
2013/04/22 00:18:30.000   31.099635509  121.200459154    23.0003   5   8   2.9409   2.2868   6.7267  -0.6320  -1.5294  -2.1496   0.00    0.0
2013/04/22 00:19:00.000   31.099636758  121.200459398    23.0476   5   8   2.9437   2.2899   6.7164  -0.6418  -1.4969  -2.1480   0.00    0.0
2013/04/22 00:19:30.000   31.099638982  121.200459331    23.3971   5   8   2.9464   2.2930   6.7058  -0.6515  -1.4638  -2.1463   0.00    0.0
2013/04/22 00:20:00.000   31.099635512  121.200457400    22.3977   5   8   2.9492   2.2963   6.6952  -0.6611  -1.4299  -2.1444   0.00    0.0
2013/04/22 00:20:30.000   31.099638708  121.200458063    22.2287   5   7   3.7495   2.5224   8.1036   1.3948   1.6736   2.4496   0.00    0.0
2013/04/22 00:21:00.000   31.099635648  121.200459684    22.6903   5   7   3.7574   2.5294   8.1217   1.4014   1.7296   2.4825   0.00    0.0
2013/04/22 00:21:30.000   31.099637951  121.200457092    23.9396   5   7   3.7654   2.5367   8.1396   1.4082   1.7843   2.5152   0.00    0.0
2013/04/22 00:22:00.000   31.099640389  121.200460475    23.8382   5   7   3.7735   2.5442   8.1574   1.4152   1.8376   2.5476   0.00    0.0
2013/04/22 00:22:30.000   31.099637301  121.200461663    23.3477   5   7   3.7818   2.5519   8.1752   1.4224   1.8898   2.5799   0.00    0.0
2013/04/22 00:23:00.000   31.099639935  121.200463137    23.2117   5   7   3.7901   2.5599   8.1929   1.4298   1.9408   2.6119   0.00    0.0
2013/04/22 00:23:30.000   31.099639756  121.200458901    22.5773   5   7   3.7986   2.5680   8.2105   1.4374   1.9908   2.6438   0.00    0.0
2013/04/22 00:24:00.000   31.099636457  121.200458823    22.4966   5   7   3.8071   2.5763   8.2279   1.4451   2.0399   2.6754   0.00    0.0
2013/04/22 00:24:30.000   31.099637410  121.200455692    23.5914   5   7   3.8158   2.5848   8.2453   1.4530   2.0880   2.7068   0.00    0.0
2013/04/22 00:25:00.000   31.099639350  121.200458236    23.6472   5   7   3.8245   2.5936   8.2626   1.4611   2.1353   2.7379   0.00    0.0
2013/04/22 00:25:30.000   31.099638268  121.200459424    23.2880   5   7   3.8334   2.6025   8.2798   1.4694   2.1817   2.7689   0.00    0.0
2013/04/22 00:26:00.000   31.099637336  121.200459298    23.6944   5   7   3.8424   2.6116   8.2969   1.4778   2.2274   2.7996   0.00    0.0
2013/04/22 00:26:30.000   31.099638811  121.200463051    23.7590   5   7   3.8514   2.6210   8.3139   1.4863   2.2724   2.8300   0.00    0.0
2013/04/22 00:27:00.000   31.099640476  121.200459569    23.9369   5   7   3.8606   2.6305   8.3308   1.4950   2.3166   2.8603   0.00    0.0
2013/04/22 00:27:30.000   31.099636865  121.200456957    23.7015   5   7   3.8698   2.6402   8.3476   1.5039   2.3602   2.8902   0.00    0.0
2013/04/22 00:28:00.000   31.099634773  121.200457341    22.9170   5   7   3.8791   2.6501   8.3642   1.5128   2.4031   2.9200   0.00    0.0
2013/04/22 00:28:30.000   31.099635056  121.200459264    23.2604   5   7   3.8885   2.6602   8.3807   1.5219   2.4454   2.9495   0.00    0.0
2013/04/22 00:29:00.000   31.099638647  121.200459057    23.0573   5   7   3.8981   2.6704   8.3972   1.5311   2.4871   2.9787   0.00    0.0
2013/04/22 00:29:30.000   31.099642179  121.200455134    24.1244   5   7   3.9076   2.6808   8.4134   1.5404   2.5282   3.0077   0.00    0.0
2013/04/22 00:30:00.000   31.099641196  121.200456546    24.1792   5   7   3.9173   2.6914   8.4296   1.5499   2.5688   3.0364   0.00    0.0
2013/04/22 00:30:30.000   31.099635338  121.200460092    23.7003   5   7   3.9271   2.7022   8.4456   1.5594   2.6088   3.0648   0.00    0.0
2013/04/22 00:31:00.000   31.099636421  121.200454225    23.3085   5   7   3.9369   2.7132   8.4615   1.5690   2.6483   3.0929   0.00    0.0
2013/04/22 00:31:30.000   31.099634518  121.200456426    23.5070   5   7   3.9468   2.7242   8.4772   1.5786   2.6872   3.1208   0.00    0.0
2013/04/22 00:32:00.000   31.099636277  121.200454590    22.2236   5   7   3.9568   2.7355   8.4927   1.5883   2.7256   3.1484   0.00    0.0
2013/04/22 00:32:30.000   31.099639805  121.200457051    23.7306   5   7   3.9668   2.7469   8.5081   1.5981   2.7636   3.1756   0.00    0.0
2013/04/22 00:33:00.000   31.099638273  121.200455951    23.6309   5   7   3.9769   2.7584   8.5234   1.6080   2.8010   3.2026   0.00    0.0
2013/04/22 00:33:30.000   31.099637283  121.200456846    23.6881   5   7   3.9871   2.7701   8.5384   1.6178   2.8380   3.2293   0.00    0.0
2013/04/22 00:34:00.000   31.099636156  121.200457802    22.7054   5   7   3.9973   2.7820   8.5533   1.6277   2.8744   3.2556   0.00    0.0
2013/04/22 00:34:30.000   31.099641043  121.200455662    23.2747   5   7   4.0076   2.7939   8.5680   1.6376   2.9104   3.2816   0.00    0.0
2013/04/22 00:35:00.000   31.099643806  121.200454749    22.9682   5   7   4.0179   2.8060   8.5825   1.6476   2.9460   3.3073   0.00    0.0
2013/04/22 00:35:30.000   31.099641859  121.200456847    23.4080   5   7   4.0283   2.8182   8.5968   1.6575   2.9811   3.3326   0.00    0.0
2013/04/22 00:36:00.000   31.099641335  121.200455331    23.1582   5   7   4.0387   2.8306   8.6109   1.6674   3.0157   3.3576   0.00    0.0
2013/04/22 00:36:30.000   31.099638998  121.200453232    22.9384   5   7   4.0492   2.8430   8.6248   1.6773   3.0498   3.3822   0.00    0.0
2013/04/22 00:37:00.000   31.099637315  121.200456124    22.5834   5   7   4.0596   2.8555   8.6384   1.6871   3.0836   3.4064   0.00    0.0
2013/04/22 00:37:30.000   31.099641526  121.200459589    22.4850   5   7   4.0701   2.8682   8.6519   1.6969   3.1168   3.4303   0.00    0.0
2013/04/22 00:38:00.000   31.099642021  121.200460609    22.6788   5   7   4.0806   2.8809   8.6650   1.7067   3.1496   3.4538   0.00    0.0
2013/04/22 00:38:30.000   31.099639514  121.200453691    22.7827   5   7   4.0912   2.8938   8.6780   1.7163   3.1820   3.4769   0.00    0.0
2013/04/22 00:39:00.000   31.099642505  121.200457107    23.8400   5   7   4.1017   2.9067   8.6907   1.7259   3.2139   3.4996   0.00    0.0
2013/04/22 00:39:30.000   31.099639304  121.200459650    23.0090   5   7   4.1123   2.9197   8.7031   1.7354   3.2454   3.5219   0.00    0.0
2013/04/22 00:40:00.000   31.099640022  121.200460815    23.6617   5   7   4.1228   2.9327   8.7152   1.7448   3.2764   3.5437   0.00    0.0
2013/04/22 00:40:30.000   31.099638196  121.200456280    23.2659   5   7   4.1333   2.9458   8.7271   1.7541   3.3070   3.5652   0.00    0.0
2013/04/22 00:41:00.000   31.099639666  121.200456227    22.7345   5   7   4.1439   2.9590   8.7386   1.7633   3.3371   3.5861   0.00    0.0
2013/04/22 00:41:30.000   31.099638538  121.200458789    23.0863   5   7   4.1544   2.9723   8.7499   1.7723   3.3668   3.6067   0.00    0.0
2013/04/22 00:42:00.000   31.099633901  121.200455899    22.2156   5   7   4.1648   2.9855   8.7608   1.7812   3.3960   3.6267   0.00    0.0
2013/04/22 00:42:30.000   31.099641311  121.200458820    23.6271   5   7   4.1753   2.9989   8.7715   1.7899   3.4248   3.6463   0.00    0.0
2013/04/22 00:43:00.000   31.099642274  121.200465404    25.3889   5   7   4.1857   3.0122   8.7818   1.7984   3.4531   3.6655   0.00    0.0
2013/04/22 00:43:30.000   31.099640706  121.200458024    23.8714   5   7   4.1961   3.0256   8.7917   1.8068   3.4810   3.6841   0.00    0.0
2013/04/22 00:44:00.000   31.099640488  121.200455253    23.3896   5   7   4.2064   3.0390   8.8014   1.8149   3.5084   3.7022   0.00    0.0
2013/04/22 00:44:30.000   31.099637654  121.200456683    22.3644   5   7   4.2167   3.0525   8.8107   1.8228   3.5354   3.7199   0.00    0.0
2013/04/22 00:45:00.000   31.099640022  121.200456935    23.2785   5   7   4.2269   3.0659   8.8196   1.8305   3.5618   3.7370   0.00    0.0
2013/04/22 00:45:30.000   31.099639957  121.200455212    23.6587   5   7   4.2370   3.0793   8.8281   1.8380   3.5879   3.7535   0.00    0.0
2013/04/22 00:46:00.000   31.099640510  121.200459380    24.8026   5   7   4.2471   3.0928   8.8363   1.8452   3.6134   3.7696   0.00    0.0
2013/04/22 00:46:30.000   31.099641355  121.200458979    24.2234   5   7   4.2571   3.1062   8.8440   1.8522   3.6385   3.7850   0.00    0.0
2013/04/22 00:47:00.000   31.099640922  121.200459106    24.7800   5   7   4.2670   3.1196   8.8514   1.8588   3.6631   3.7999   0.00    0.0
2013/04/22 00:47:30.000   31.099635653  121.200459136    23.7134   5   7   4.2769   3.1330   8.8584   1.8652   3.6873   3.8143   0.00    0.0
2013/04/22 00:48:00.000   31.099641142  121.200460503    23.7446   5   7   4.2866   3.1464   8.8650   1.8713   3.7109   3.8281   0.00    0.0
2013/04/22 00:48:30.000   31.099642857  121.200458627    24.2061   5   7   4.2962   3.1597   8.8711   1.8771   3.7341   3.8412   0.00    0.0
2013/04/22 00:49:00.000   31.099639222  121.200455103    21.4122   5   7   4.3058   3.1730   8.8768   1.8825   3.7568   3.8538   0.00    0.0
2013/04/22 00:49:30.000   31.099638181  121.200457601    22.3501   5   7   4.3152   3.1863   8.8821   1.8876   3.7791   3.8658   0.00    0.0
2013/04/22 00:50:00.000   31.099640570  121.200454332    21.9999   5   7   4.3245   3.1995   8.8870   1.8924   3.8008   3.8771   0.00    0.0
2013/04/22 00:50:30.000   31.099639016  121.200452690    22.6504   5   7   4.3337   3.2126   8.8914   1.8967   3.8221   3.8879   0.00    0.0
2013/04/22 00:51:00.000   31.099639749  121.200455767    23.1488   5   7   4.3427   3.2258   8.8954   1.9008   3.8428   3.8980   0.00    0.0
2013/04/22 00:51:30.000   31.099641201  121.200459385    22.5103   5   7   4.3516   3.2388   8.8989   1.9044   3.8631   3.9074   0.00    0.0
2013/04/22 00:52:00.000   31.099644224  121.200461596    23.6106   5   7   4.3604   3.2518   8.9020   1.9076   3.8829   3.9162   0.00    0.0
2013/04/22 00:52:30.000   31.099642021  121.200458497    23.5311   5   7   4.3691   3.2647   8.9045   1.9104   3.9022   3.9243   0.00    0.0
2013/04/22 00:53:00.000   31.099640637  121.200457422    22.6807   5   7   4.3776   3.2775   8.9067   1.9127   3.9210   3.9318   0.00    0.0
2013/04/22 00:53:30.000   31.099643525  121.200457363    22.3322   5   7   4.3859   3.2902   8.9083   1.9146   3.9393   3.9386   0.00    0.0
2013/04/22 00:54:00.000   31.099642925  121.200455259    22.7432   5   7   4.3942   3.3029   8.9095   1.9161   3.9572   3.9447   0.00    0.0
2013/04/22 00:54:30.000   31.099640399  121.200454668    23.0096   5   7   4.4022   3.3155   8.9102   1.9171   3.9745   3.9501   0.00    0.0
2013/04/22 00:55:00.000   31.099637498  121.200460405    22.8235   5   7   4.4101   3.3280   8.9105   1.9176   3.9914   3.9548   0.00    0.0
2013/04/22 00:55:30.000   31.099640439  121.200456432    23.3782   5   7   4.4178   3.3404   8.9102   1.9177   4.0077   3.9588   0.00    0.0
2013/04/22 00:56:00.000   31.099645056  121.200457253    23.4313   5   7   4.4254   3.3527   8.9095   1.9172   4.0236   3.9621   0.00    0.0
2013/04/22 00:56:30.000   31.099642803  121.200458058    22.1951   5   7   4.4328   3.3649   8.9083   1.9162   4.0390   3.9647   0.00    0.0
2013/04/22 00:57:00.000   31.099646241  121.200455019    22.0213   5   7   4.4400   3.3770   8.9066   1.9147   4.0539   3.9666   0.00    0.0
2013/04/22 00:57:30.000   31.099645365  121.200456732    22.7329   5   7   4.4471   3.3889   8.9045   1.9126   4.0683   3.9677   0.00    0.0
2013/04/22 00:58:00.000   31.099646256  121.200460301    23.6382   5   7   4.4540   3.4008   8.9018   1.9100   4.0822   3.9681   0.00    0.0
2013/04/22 00:58:30.000   31.099635730  121.200457777    22.6900   5   7   4.4607   3.4126   8.8987   1.9069   4.0957   3.9678   0.00    0.0
2013/04/22 00:59:00.000   31.099632949  121.200460760    22.7425   5   7   4.4673   3.4243   8.8952   1.9031   4.1087   3.9667   0.00    0.0
2013/04/22 00:59:30.000   31.099637705  121.200461616    22.9503   5   7   4.4736   3.4359   8.8911   1.8987   4.1212   3.9649   0.00    0.0
2013/04/22 01:00:00.000   31.099641098  121.200461454    22.5360   5   7   4.3119   3.4030   8.6365   2.0630   3.9912   4.2712   0.00    0.0
2013/04/22 01:00:30.000   31.099643312  121.200460776    22.3175   5   7   4.3219   3.4121   8.6243   2.0605   3.9973   4.2690   0.00    0.0
2013/04/22 01:01:00.000   31.099641892  121.200460023    22.9543   5   7   4.3315   3.4209   8.6115   2.0573   4.0028   4.2661   0.00    0.0
2013/04/22 01:01:30.000   31.099647161  121.200460048    23.3826   5   7   4.3409   3.4297   8.5982   2.0535   4.0077   4.2623   0.00    0.0
2013/04/22 01:02:00.000   31.099645609  121.200456190    23.1599   5   7   4.3501   3.4382   8.5844   2.0491   4.0121   4.2577   0.00    0.0
2013/04/22 01:02:30.000   31.099645466  121.200455727    21.6102   5   7   4.3590   3.4467   8.5701   2.0439   4.0161   4.2524   0.00    0.0
2013/04/22 01:03:00.000   31.099644988  121.200452578    22.3758   5   7   4.3677   3.4549   8.5553   2.0381   4.0195   4.2462   0.00    0.0
2013/04/22 01:03:30.000   31.099648916  121.200457959    21.4890   5   7   4.3761   3.4630   8.5400   2.0315   4.0224   4.2392   0.00    0.0
2013/04/22 01:04:00.000   31.099650011  121.200458040    22.9003   5   7   4.3843   3.4710   8.5243   2.0243   4.0248   4.2315   0.00    0.0
2013/04/22 01:04:30.000   31.099645900  121.200455762    22.2704   5   7   4.3922   3.4788   8.5081   2.0164   4.0267   4.2229   0.00    0.0
2013/04/22 01:05:00.000   31.099641925  121.200457819    21.9254   5   7   4.3999   3.4864   8.4916   2.0077   4.0282   4.2136   0.00    0.0
2013/04/22 01:05:30.000   31.099639867  121.200453323    21.3848   5   7   4.4073   3.4940   8.4746   1.9983   4.0292   4.2034   0.00    0.0
2013/04/22 01:06:00.000   31.099644512  121.200457228    22.5170   5   7   4.4146   3.5014   8.4572   1.9881   4.0298   4.1925   0.00    0.0
2013/04/22 01:06:30.000   31.099643695  121.200456339    23.2145   5   7   4.4216   3.5086   8.4394   1.9772   4.0300   4.1808   0.00    0.0
2013/04/22 01:07:00.000   31.099643620  121.200456539    22.4527   5   7   4.4284   3.5158   8.4213   1.9656   4.0297   4.1684   0.00    0.0
2013/04/22 01:07:30.000   31.099641964  121.200459898    22.0884   5   7   4.4349   3.5228   8.4028   1.9531   4.0291   4.1551   0.00    0.0
2013/04/22 01:08:00.000   31.099648585  121.200454200    23.6480   5   6   6.9276   3.5468  12.4287   1.3841   3.6107   8.1197   0.00    0.0
2013/04/22 01:08:30.000   31.099640234  121.200454185    21.7840   5   6   6.9520   3.5540  12.4090   1.3515   3.6036   8.1242   0.00    0.0
2013/04/22 01:09:00.000   31.099635196  121.200456816    20.1206   5   5   8.1290   3.7627  17.0572  -1.8274  -1.1475  10.7236   0.00    0.0
2013/04/22 01:09:30.000   31.099648484  121.200453640    24.1659   5   5   8.1744   3.7703  17.0666  -1.8748  -1.2092  10.7596   0.00    0.0
2013/04/22 01:10:00.000   31.099653467  121.200453310    24.1926   5   5   8.2169   3.7781  17.0696  -1.9223  -1.2701  10.7909   0.00    0.0
2013/04/22 01:10:30.000   31.099665721  121.200445572    26.8175   5   5   8.2566   3.7861  17.0662  -1.9698  -1.3301  10.8171   0.00    0.0
2013/04/22 01:11:00.000   31.099659286  121.200448122    26.0639   5   5   8.2932   3.7942  17.0563  -2.0173  -1.3891  10.8382   0.00    0.0
2013/04/22 01:11:30.000   31.099656763  121.200448669    24.1890   5   5   8.3268   3.8025  17.0399  -2.0645  -1.4470  10.8542   0.00    0.0
2013/04/22 01:12:00.000   31.099656218  121.200451059    25.3003   5   5   8.3573   3.8110  17.0170  -2.1116  -1.5036  10.8650   0.00    0.0
2013/04/22 01:12:30.000   31.099658099  121.200455042    25.6740   5   5   8.3846   3.8196  16.9876  -2.1585  -1.5588  10.8706   0.00    0.0
2013/04/22 01:13:00.000   31.099657135  121.200457039    26.0779   5   5   8.4087   3.8285  16.9517  -2.2050  -1.6125  10.8709   0.00    0.0
2013/04/22 01:13:30.000   31.099655920  121.200454631    25.0603   5   5   8.4296   3.8375  16.9094  -2.2511  -1.6646  10.8660   0.00    0.0
2013/04/22 01:14:00.000   31.099651017  121.200457123    23.2034   5   5   8.4473   3.8468  16.8609  -2.2968  -1.7150  10.8560   0.00    0.0
2013/04/22 01:14:30.000   31.099664031  121.200450924    27.1095   5   5   8.4617   3.8562  16.8062  -2.3420  -1.7637  10.8407   0.00    0.0
2013/04/22 01:15:00.000   31.099657352  121.200453601    24.0743   5   5   8.4730   3.8658  16.7455  -2.3867  -1.8105  10.8204   0.00    0.0
2013/04/22 01:15:30.000   31.099657334  121.200454615    23.9684   5   5   8.4812   3.8756  16.6790  -2.4309  -1.8554  10.7951   0.00    0.0
2013/04/22 01:16:00.000   31.099650162  121.200456592    22.5928   5   5   8.4863   3.8856  16.6068  -2.4744  -1.8983  10.7648   0.00    0.0
2013/04/22 01:16:30.000   31.099642635  121.200457848    20.6613   5   5   8.4883   3.8959  16.5292  -2.5173  -1.9392  10.7298   0.00    0.0
2013/04/22 01:17:00.000   31.099637833  121.200459506    19.2604   5   5   8.4874   3.9063  16.4465  -2.5595  -1.9780  10.6902   0.00    0.0
2013/04/22 01:17:30.000   31.099657563  121.200456895    22.4466   5   5   8.4836   3.9169  16.3588  -2.6010  -2.0147  10.6460   0.00    0.0
2013/04/22 01:18:00.000   31.099647625  121.200459218    20.2905   5   5   8.4770   3.9277  16.2664  -2.6417  -2.0493  10.5974   0.00    0.0
2013/04/22 01:18:30.000   31.099649619  121.200456789    21.2594   5   5   8.4678   3.9387  16.1696  -2.6818  -2.0817  10.5447   0.00    0.0
2013/04/22 01:19:00.000   31.099647110  121.200457517    21.0295   5   5   8.4560   3.9499  16.0687  -2.7210  -2.1118  10.4879   0.00    0.0
2013/04/22 01:19:30.000   31.099655629  121.200452079    22.7937   5   5   8.4417   3.9613  15.9640  -2.7595  -2.1398  10.4273   0.00    0.0
2013/04/22 01:20:00.000   31.099657476  121.200450812    24.4630   5   5   8.4251   3.9728  15.8557  -2.7973  -2.1655  10.3631   0.00    0.0
2013/04/22 01:20:30.000   31.099654410  121.200451062    24.9342   5   5   8.4063   3.9846  15.7442  -2.8342  -2.1890  10.2954   0.00    0.0
2013/04/22 01:21:00.000   31.099657978  121.200454862    23.4734   5   5   8.3855   3.9966  15.6297  -2.8704  -2.2102  10.2244   0.00    0.0
2013/04/22 01:21:30.000   31.099653646  121.200451279    24.4567   5   5   8.3627   4.0087  15.5126  -2.9058  -2.2293  10.1503   0.00    0.0
2013/04/22 01:22:00.000   31.099653125  121.200454702    23.1003   5   5   8.3380   4.0211  15.3932  -2.9405  -2.2461  10.0734   0.00    0.0
2013/04/22 01:22:30.000   31.099650804  121.200457132    23.7604   5   5   8.3117   4.0336  15.2716  -2.9744  -2.2607   9.9937   0.00    0.0
2013/04/22 01:23:00.000   31.099650156  121.200455835    23.2325   5   5   8.2839   4.0463  15.1483  -3.0075  -2.2731   9.9116   0.00    0.0
2013/04/22 01:23:30.000   31.099646429  121.200459248    22.8445   5   6   7.9803   3.7864  11.9407  -3.5113  -4.3072   8.7939   0.00    0.0
2013/04/22 01:24:00.000   31.099650068  121.200452469    23.9611   5   6   7.9806   3.7909  11.9262  -3.5200  -4.3046   8.7832   0.00    0.0
2013/04/22 01:24:30.000   31.099653115  121.200454735    23.6124   5   6   7.9781   3.7952  11.9082  -3.5275  -4.3007   8.7689   0.00    0.0
2013/04/22 01:25:00.000   31.099656010  121.200451432    25.1620   5   6   7.9729   3.7993  11.8867  -3.5338  -4.2953   8.7512   0.00    0.0
2013/04/22 01:25:30.000   31.099651383  121.200452665    24.0191   5   6   7.9650   3.8032  11.8620  -3.5388  -4.2885   8.7300   0.00    0.0
2013/04/22 01:26:00.000   31.099658322  121.200454289    24.2362   5   5   9.0033   5.4485  17.4090  -5.3841  -8.2516  11.3855   0.00    0.0
2013/04/22 01:26:30.000   31.099651421  121.200455021    24.5411   5   5   8.9895   5.4351  17.3744  -5.3753  -8.2251  11.3580   0.00    0.0
2013/04/22 01:27:00.000   31.099652870  121.200455912    23.2163   5   5   8.9709   5.4205  17.3317  -5.3632  -8.1947  11.3234   0.00    0.0
2013/04/22 01:27:30.000   31.099642007  121.200459237    22.1543   5   5   8.9477   5.4048  17.2810  -5.3480  -8.1606  11.2819   0.00    0.0
2013/04/22 01:28:00.000   31.099645631  121.200458411    22.7930   5   5   8.9200   5.3880  17.2228  -5.3296  -8.1228  11.2338   0.00    0.0
2013/04/22 01:28:30.000   31.099649341  121.200456839    23.8920   5   5   8.8881   5.3702  17.1574  -5.3083  -8.0815  11.1794   0.00    0.0
2013/04/22 01:29:00.000   31.099650291  121.200453960    23.4039   5   5   8.8522   5.3515  17.0851  -5.2841  -8.0368  11.1188   0.00    0.0
2013/04/22 01:29:30.000   31.099649197  121.200458478    22.5747   5   5   8.8124   5.3318  17.0064  -5.2574  -7.9891  11.0525   0.00    0.0
2013/04/22 01:30:00.000   31.099651364  121.200458163    23.8897   5   5   8.7691   5.3114  16.9217  -5.2281  -7.9383  10.9807   0.00    0.0
2013/04/22 01:30:30.000   31.099653419  121.200459020    23.9343   5   5   8.7223   5.2901  16.8314  -5.1965  -7.8848  10.9038   0.00    0.0
2013/04/22 01:31:00.000   31.099656399  121.200454205    25.0702   5   5   8.6724   5.2682  16.7359  -5.1627  -7.8287  10.8221   0.00    0.0
2013/04/22 01:31:30.000   31.099658290  121.200459132    25.0741   5   5   8.6197   5.2457  16.6359  -5.1269  -7.7703  10.7358   0.00    0.0
2013/04/22 01:32:00.000   31.099657217  121.200461235    25.5343   5   5   8.5642   5.2227  16.5315  -5.0892  -7.7096  10.6455   0.00    0.0
2013/04/22 01:32:30.000   31.099650161  121.200460774    23.5984   5   5   8.5064   5.1992  16.4235  -5.0499  -7.6470  10.5513   0.00    0.0
2013/04/22 01:33:00.000   31.099655361  121.200453726    24.2201   5   5   8.4464   5.1753  16.3120  -5.0091  -7.5826  10.4537   0.00    0.0
2013/04/22 01:33:30.000   31.099648975  121.200454451    22.4834   5   5   8.3845   5.1511  16.1977  -4.9670  -7.5166  10.3529   0.00    0.0
2013/04/22 01:34:00.000   31.099649168  121.200459334    23.3485   5   5   8.3209   5.1266  16.0809  -4.9236  -7.4492  10.2493   0.00    0.0
2013/04/22 01:34:30.000   31.099645667  121.200460600    21.8857   5   5   8.2558   5.1020  15.9621  -4.8793  -7.3805  10.1432   0.00    0.0
2013/04/22 01:35:00.000   31.099647376  121.200464148    21.4614   5   5   8.1895   5.0772  15.8416  -4.8340  -7.3108  10.0348   0.00    0.0
2013/04/22 01:35:30.000   31.099643302  121.200462182    21.2740   5   5   8.1221   5.0524  15.7197  -4.7880  -7.2403   9.9245   0.00    0.0
2013/04/22 01:36:00.000   31.099644133  121.200455686    22.7101   5   6   3.9578   3.5505   7.2660   1.5769  -1.5063  -0.7211   0.00    0.0
2013/04/22 01:36:30.000   31.099646110  121.200458344    22.3383   5   6   3.9565   3.5457   7.2894   1.5628  -1.4823  -0.7714   0.00    0.0
2013/04/22 01:37:00.000   31.099643653  121.200460253    22.8828   5   6   3.9552   3.5409   7.3132   1.5487  -1.4578  -0.8202   0.00    0.0
2013/04/22 01:37:30.000   31.099648368  121.200458886    21.9422   5   6   3.9539   3.5363   7.3374   1.5346  -1.4329  -0.8677   0.00    0.0
2013/04/22 01:38:00.000   31.099642554  121.200457427    21.8714   5   6   3.9526   3.5319   7.3619   1.5204  -1.4076  -0.9142   0.00    0.0
2013/04/22 01:38:30.000   31.099645320  121.200459342    22.9319   5   6   3.9514   3.5275   7.3868   1.5063  -1.3819  -0.9598   0.00    0.0
2013/04/22 01:39:00.000   31.099644272  121.200459025    23.0725   5   6   3.9501   3.5233   7.4120   1.4922  -1.3556  -1.0046   0.00    0.0
2013/04/22 01:39:30.000   31.099645759  121.200461331    21.6531   5   6   3.9489   3.5192   7.4376   1.4780  -1.3287  -1.0487   0.00    0.0
2013/04/22 01:40:00.000   31.099646764  121.200459688    21.5259   5   6   3.9478   3.5152   7.4636   1.4639  -1.3013  -1.0922   0.00    0.0
2013/04/22 01:40:30.000   31.099645663  121.200455205    22.3203   5   6   3.9466   3.5113   7.4900   1.4497  -1.2732  -1.1352   0.00    0.0
2013/04/22 01:41:00.000   31.099650309  121.200459726    21.9110   5   6   3.9455   3.5075   7.5167   1.4356  -1.2444  -1.1777   0.00    0.0
2013/04/22 01:41:30.000   31.099650493  121.200461572    21.2029   5   6   3.9444   3.5039   7.5439   1.4213  -1.2149  -1.2199   0.00    0.0
2013/04/22 01:42:00.000   31.099649210  121.200457068    22.3749   5   6   3.9434   3.5003   7.5714   1.4071  -1.1845  -1.2616   0.00    0.0
2013/04/22 01:42:30.000   31.099647462  121.200452277    22.3063   5   6   3.9424   3.4969   7.5993   1.3928  -1.1533  -1.3030   0.00    0.0
2013/04/22 01:43:00.000   31.099647498  121.200455274    22.5966   5   6   3.9414   3.4936   7.6276   1.3785  -1.1210  -1.3442   0.00    0.0
2013/04/22 01:43:30.000   31.099648821  121.200461695    21.9210   5   6   3.9405   3.4904   7.6563   1.3642  -1.0877  -1.3850   0.00    0.0
2013/04/22 01:44:00.000   31.099649135  121.200458881    21.7005   5   6   3.9397   3.4873   7.6855   1.3498  -1.0531  -1.4256   0.00    0.0
2013/04/22 01:44:30.000   31.099646018  121.200457628    21.6690   5   6   3.9389   3.4843   7.7150   1.3354  -1.0172  -1.4660   0.00    0.0
2013/04/22 01:45:00.000   31.099649701  121.200456249    22.1127   5   6   3.9382   3.4814   7.7450   1.3209  -0.9798  -1.5062   0.00    0.0
2013/04/22 01:45:30.000   31.099646896  121.200451573    22.9347   5   6   3.9375   3.4787   7.7753   1.3063  -0.9407  -1.5462   0.00    0.0
2013/04/22 01:46:00.000   31.099649005  121.200454957    20.9474   5   7   3.9134   3.1570   6.8395   1.0216  -2.5066  -2.0326   0.00    0.0
2013/04/22 01:46:30.000   31.099650358  121.200455519    20.8239   5   7   3.9150   3.1528   6.8633   1.0162  -2.4999  -2.0482   0.00    0.0
2013/04/22 01:47:00.000   31.099648664  121.200456533    21.7701   5   7   3.9165   3.1487   6.8873   1.0111  -2.4932  -2.0641   0.00    0.0
2013/04/22 01:47:30.000   31.099648848  121.200451559    21.8927   5   7   3.9181   3.1447   6.9116   1.0061  -2.4866  -2.0803   0.00    0.0
2013/04/22 01:48:00.000   31.099650951  121.200458087    21.6553   5   7   3.9196   3.1408   6.9362   1.0014  -2.4801  -2.0967   0.00    0.0
2013/04/22 01:48:30.000   31.099649354  121.200455445    21.3997   5   7   3.9211   3.1369   6.9610   0.9968  -2.4737  -2.1134   0.00    0.0
2013/04/22 01:49:00.000   31.099648918  121.200454159    20.7950   5   7   3.9226   3.1332   6.9862   0.9924  -2.4673  -2.1304   0.00    0.0
2013/04/22 01:49:30.000   31.099652912  121.200451813    20.9179   5   7   3.9241   3.1294   7.0116   0.9882  -2.4609  -2.1476   0.00    0.0
2013/04/22 01:50:00.000   31.099652935  121.200455583    22.2021   5   7   3.9256   3.1258   7.0374   0.9841  -2.4546  -2.1650   0.00    0.0
2013/04/22 01:50:30.000   31.099649311  121.200460385    21.4527   5   7   3.9271   3.1222   7.0634   0.9802  -2.4483  -2.1827   0.00    0.0
2013/04/22 01:51:00.000   31.099648348  121.200459965    20.7060   5   7   3.9286   3.1187   7.0897   0.9766  -2.4421  -2.2006   0.00    0.0
2013/04/22 01:51:30.000   31.099652834  121.200452892    22.4077   5   7   3.9301   3.1153   7.1162   0.9730  -2.4360  -2.2187   0.00    0.0
2013/04/22 01:52:00.000   31.099653892  121.200454403    21.6340   5   7   3.9317   3.1120   7.1431   0.9697  -2.4298  -2.2370   0.00    0.0
2013/04/22 01:52:30.000   31.099652018  121.200454512    22.0066   5   7   3.9332   3.1087   7.1702   0.9665  -2.4238  -2.2554   0.00    0.0
2013/04/22 01:53:00.000   31.099652385  121.200451500    21.9066   5   7   3.9347   3.1055   7.1976   0.9635  -2.4177  -2.2741   0.00    0.0
2013/04/22 01:53:30.000   31.099650068  121.200455865    21.2102   5   7   3.9363   3.1023   7.2252   0.9607  -2.4117  -2.2930   0.00    0.0
2013/04/22 01:54:00.000   31.099648955  121.200455394    20.5792   5   7   3.9379   3.0992   7.2531   0.9580  -2.4057  -2.3120   0.00    0.0
2013/04/22 01:54:30.000   31.099651723  121.200456078    20.8996   5   7   3.9395   3.0962   7.2813   0.9555  -2.3998  -2.3311   0.00    0.0
2013/04/22 01:55:00.000   31.099650052  121.200453944    19.9417   5   7   3.9411   3.0932   7.3097   0.9531  -2.3939  -2.3505   0.00    0.0
2013/04/22 01:55:30.000   31.099654375  121.200451886    21.0568   5   7   3.9427   3.0903   7.3383   0.9509  -2.3880  -2.3699   0.00    0.0
2013/04/22 01:56:00.000   31.099654779  121.200453831    20.8818   5   7   3.9444   3.0875   7.3672   0.9488  -2.3821  -2.3895   0.00    0.0
2013/04/22 01:56:30.000   31.099652580  121.200454653    21.0290   5   7   3.9460   3.0847   7.3964   0.9469  -2.3762  -2.4093   0.00    0.0
2013/04/22 01:57:00.000   31.099648856  121.200459157    20.7231   5   7   3.9477   3.0820   7.4257   0.9451  -2.3704  -2.4291   0.00    0.0
2013/04/22 01:57:30.000   31.099648919  121.200454783    20.6931   5   7   3.9495   3.0794   7.4553   0.9435  -2.3645  -2.4491   0.00    0.0
2013/04/22 01:58:00.000   31.099648707  121.200448903    20.7808   5   7   3.9512   3.0768   7.4851   0.9420  -2.3587  -2.4691   0.00    0.0
2013/04/22 01:58:30.000   31.099647737  121.200453003    20.6105   5   7   3.9530   3.0743   7.5152   0.9406  -2.3529  -2.4893   0.00    0.0
2013/04/22 01:59:00.000   31.099651328  121.200451072    19.9783   5   7   3.9548   3.0718   7.5454   0.9394  -2.3471  -2.5095   0.00    0.0
2013/04/22 01:59:30.000   31.099653876  121.200452143    19.9938   5   7   3.9567   3.0694   7.5758   0.9383  -2.3412  -2.5298   0.00    0.0
2013/04/22 02:00:00.000   31.099652450  121.200451560    19.8878   5   7   4.0312   3.2435   8.0368   1.2671  -2.3903  -2.7412   0.00    0.0
2013/04/22 02:00:30.000   31.099651876  121.200450904    21.4769   5   7   4.0325   3.2405   8.0679   1.2655  -2.3859  -2.7579   0.00    0.0
2013/04/22 02:01:00.000   31.099653249  121.200452319    20.9549   5   7   4.0338   3.2376   8.0990   1.2641  -2.3814  -2.7748   0.00    0.0
2013/04/22 02:01:30.000   31.099649695  121.200451646    20.6348   5   7   4.0352   3.2347   8.1303   1.2628  -2.3770  -2.7917   0.00    0.0
2013/04/22 02:02:00.000   31.099650156  121.200452563    19.6228   5   7   4.0366   3.2319   8.1615   1.2616  -2.3725  -2.8088   0.00    0.0
2013/04/22 02:02:30.000   31.099649963  121.200455667    19.8059   5   7   4.0381   3.2291   8.1929   1.2606  -2.3681  -2.8259   0.00    0.0
2013/04/22 02:03:00.000   31.099651301  121.200453449    19.7318   5   7   4.0397   3.2264   8.2242   1.2597  -2.3637  -2.8431   0.00    0.0
2013/04/22 02:03:30.000   31.099655953  121.200448517    19.5551   5   7   4.0414   3.2238   8.2556   1.2588  -2.3593  -2.8603   0.00    0.0
2013/04/22 02:04:00.000   31.099652814  121.200448170    19.3787   5   7   4.0431   3.2213   8.2869   1.2581  -2.3548  -2.8776   0.00    0.0
2013/04/22 02:04:30.000   31.099654952  121.200451143    19.7065   5   7   4.0449   3.2187   8.3183   1.2575  -2.3504  -2.8949   0.00    0.0
2013/04/22 02:05:00.000   31.099655022  121.200453513    19.2264   5   7   4.0467   3.2163   8.3496   1.2570  -2.3459  -2.9122   0.00    0.0
2013/04/22 02:05:30.000   31.099657920  121.200451068    19.9015   5   7   4.0487   3.2139   8.3809   1.2566  -2.3414  -2.9296   0.00    0.0
2013/04/22 02:06:00.000   31.099653717  121.200449749    20.8727   5   7   4.0507   3.2116   8.4121   1.2562  -2.3369  -2.9470   0.00    0.0
2013/04/22 02:06:30.000   31.099656693  121.200453847    19.0976   5   7   4.0527   3.2093   8.4432   1.2560  -2.3324  -2.9643   0.00    0.0
2013/04/22 02:07:00.000   31.099655745  121.200454255    20.4430   5   7   4.0549   3.2071   8.4743   1.2559  -2.3278  -2.9817   0.00    0.0
2013/04/22 02:07:30.000   31.099656062  121.200453368    18.4156   5   7   4.0571   3.2049   8.5053   1.2558  -2.3232  -2.9990   0.00    0.0
2013/04/22 02:08:00.000   31.099657339  121.200450995    19.4669   5   7   4.0594   3.2028   8.5361   1.2559  -2.3185  -3.0163   0.00    0.0
2013/04/22 02:08:30.000   31.099657553  121.200452820    19.9445   5   7   4.0617   3.2008   8.5668   1.2560  -2.3138  -3.0335   0.00    0.0
2013/04/22 02:09:00.000   31.099652890  121.200449914    20.6189   5   7   4.0642   3.1988   8.5973   1.2561  -2.3090  -3.0507   0.00    0.0
2013/04/22 02:09:30.000   31.099661946  121.200450235    18.7718   5   7   4.0666   3.1969   8.6277   1.2564  -2.3041  -3.0678   0.00    0.0
2013/04/22 02:10:00.000   31.099659185  121.200454753    19.5133   5   7   4.0692   3.1950   8.6579   1.2567  -2.2992  -3.0848   0.00    0.0
2013/04/22 02:10:30.000   31.099651334  121.200450803    20.9578   5   7   4.0718   3.1932   8.6879   1.2571  -2.2941  -3.1017   0.00    0.0
2013/04/22 02:11:00.000   31.099647450  121.200450645    20.5659   5   7   4.0745   3.1914   8.7176   1.2575  -2.2890  -3.1185   0.00    0.0
2013/04/22 02:11:30.000   31.099655542  121.200455259    19.9930   5   7   4.0772   3.1897   8.7471   1.2580  -2.2838  -3.1352   0.00    0.0
2013/04/22 02:12:00.000   31.099654992  121.200456361    20.1438   5   7   4.0801   3.1881   8.7763   1.2586  -2.2785  -3.1518   0.00    0.0
2013/04/22 02:12:30.000   31.099656601  121.200455802    20.8042   5   7   4.0829   3.1865   8.8053   1.2592  -2.2731  -3.1682   0.00    0.0
2013/04/22 02:13:00.000   31.099654490  121.200453221    20.2875   5   7   4.0859   3.1849   8.8339   1.2598  -2.2676  -3.1844   0.00    0.0
2013/04/22 02:13:30.000   31.099657746  121.200454018    20.5351   5   8   3.7864   3.1422   8.3398   1.5417  -1.8936  -3.8561   0.00    0.0
2013/04/22 02:14:00.000   31.099659685  121.200458504    20.5404   5   8   3.7886   3.1411   8.3719   1.5417  -1.8892  -3.8690   0.00    0.0
2013/04/22 02:14:30.000   31.099658711  121.200458548    21.4336   5   8   3.7908   3.1400   8.4039   1.5418  -1.8848  -3.8817   0.00    0.0
2013/04/22 02:15:00.000   31.099658026  121.200451285    19.9642   5   8   3.7930   3.1390   8.4355   1.5419  -1.8802  -3.8942   0.00    0.0
2013/04/22 02:15:30.000   31.099656719  121.200452022    20.0609   5   8   3.7952   3.1380   8.4669   1.5420  -1.8756  -3.9065   0.00    0.0
2013/04/22 02:16:00.000   31.099659946  121.200453002    19.6595   5   8   3.7973   3.1371   8.4980   1.5422  -1.8708  -3.9185   0.00    0.0
2013/04/22 02:16:30.000   31.099658551  121.200452374    20.2181   5   8   3.7995   3.1363   8.5288   1.5424  -1.8660  -3.9303   0.00    0.0
2013/04/22 02:17:00.000   31.099659699  121.200448942    19.5732   5   8   3.8016   3.1355   8.5592   1.5426  -1.8610  -3.9418   0.00    0.0
2013/04/22 02:17:30.000   31.099662341  121.200453272    19.5210   5   8   3.8037   3.1347   8.5893   1.5429  -1.8560  -3.9531   0.00    0.0
2013/04/22 02:18:00.000   31.099660952  121.200455465    19.8891   5   8   3.8058   3.1340   8.6191   1.5432  -1.8507  -3.9641   0.00    0.0
2013/04/22 02:18:30.000   31.099659226  121.200454956    19.8707   5   8   3.8078   3.1334   8.6484   1.5435  -1.8454  -3.9748   0.00    0.0
2013/04/22 02:19:00.000   31.099658230  121.200452962    19.5820   5   8   3.8098   3.1328   8.6773   1.5438  -1.8399  -3.9852   0.00    0.0
2013/04/22 02:19:30.000   31.099657345  121.200455077    20.7457   5   8   3.8117   3.1322   8.7058   1.5441  -1.8342  -3.9952   0.00    0.0
2013/04/22 02:20:00.000   31.099655476  121.200453593    21.1177   5   8   3.8136   3.1318   8.7338   1.5444  -1.8284  -4.0050   0.00    0.0
2013/04/22 02:20:30.000   31.099655206  121.200452575    20.7230   5   8   3.8155   3.1313   8.7613   1.5448  -1.8224  -4.0144   0.00    0.0
2013/04/22 02:21:00.000   31.099657988  121.200452800    20.4022   5   8   3.8173   3.1309   8.7883   1.5451  -1.8162  -4.0234   0.00    0.0
2013/04/22 02:21:30.000   31.099656816  121.200452847    20.3935   5   8   3.8191   3.1306   8.8148   1.5455  -1.8098  -4.0320   0.00    0.0
2013/04/22 02:22:00.000   31.099659153  121.200450876    19.5264   5   8   3.8208   3.1303   8.8407   1.5458  -1.8032  -4.0403   0.00    0.0
2013/04/22 02:22:30.000   31.099659277  121.200450324    20.1341   5   8   3.8224   3.1301   8.8661   1.5462  -1.7964  -4.0481   0.00    0.0
2013/04/22 02:23:00.000   31.099661010  121.200449942    19.4058   5   8   3.8240   3.1299   8.8908   1.5465  -1.7893  -4.0556   0.00    0.0
2013/04/22 02:23:30.000   31.099663051  121.200450449    19.5997   5   8   3.8255   3.1298   8.9150   1.5469  -1.7820  -4.0626   0.00    0.0
2013/04/22 02:24:00.000   31.099661736  121.200448880    19.6262   5   8   3.8270   3.1297   8.9385   1.5472  -1.7745  -4.0692   0.00    0.0
2013/04/22 02:24:30.000   31.099661212  121.200453341    19.2537   5   8   3.8284   3.1297   8.9614   1.5476  -1.7667  -4.0754   0.00    0.0
2013/04/22 02:25:00.000   31.099659275  121.200451996    20.2043   5   8   3.8297   3.1297   8.9837   1.5479  -1.7586  -4.0811   0.00    0.0
2013/04/22 02:25:30.000   31.099661117  121.200449561    20.3058   5   8   3.8309   3.1298   9.0052   1.5482  -1.7503  -4.0863   0.00    0.0
2013/04/22 02:26:00.000   31.099661261  121.200455524    19.8315   5   8   3.8321   3.1299   9.0261   1.5485  -1.7416  -4.0911   0.00    0.0
2013/04/22 02:26:30.000   31.099659987  121.200457912    19.8935   5   8   3.8331   3.1301   9.0462   1.5488  -1.7327  -4.0953   0.00    0.0
2013/04/22 02:27:00.000   31.099655122  121.200452827    20.4421   5   8   3.8341   3.1303   9.0656   1.5491  -1.7234  -4.0991   0.00    0.0
2013/04/22 02:27:30.000   31.099657260  121.200453922    20.0091   5   8   3.8350   3.1306   9.0842   1.5493  -1.7138  -4.1024   0.00    0.0
2013/04/22 02:28:00.000   31.099664208  121.200457519    19.3516   5   8   3.8358   3.1309   9.1021   1.5495  -1.7039  -4.1051   0.00    0.0
2013/04/22 02:28:30.000   31.099665131  121.200463149    19.7549   5   8   3.8366   3.1313   9.1192   1.5497  -1.6936  -4.1073   0.00    0.0
2013/04/22 02:29:00.000   31.099659408  121.200457118    20.6451   5   8   3.8372   3.1318   9.1356   1.5499  -1.6830  -4.1090   0.00    0.0
2013/04/22 02:29:30.000   31.099655530  121.200450917    20.1590   5   8   3.8378   3.1322   9.1511   1.5501  -1.6720  -4.1102   0.00    0.0
2013/04/22 02:30:00.000   31.099655907  121.200450531    20.1528   5   8   3.8382   3.1328   9.1658   1.5502  -1.6606  -4.1108   0.00    0.0
2013/04/22 02:30:30.000   31.099661016  121.200453134    19.4129   5   8   3.8386   3.1333   9.1797   1.5503  -1.6488  -4.1108   0.00    0.0
2013/04/22 02:31:00.000   31.099660720  121.200449954    19.0055   5   8   3.8389   3.1340   9.1928   1.5504  -1.6366  -4.1103   0.00    0.0
2013/04/22 02:31:30.000   31.099663208  121.200448030    18.5025   5   8   3.8391   3.1347   9.2051   1.5505  -1.6240  -4.1093   0.00    0.0
2013/04/22 02:32:00.000   31.099663795  121.200457617    19.2075   5   8   3.8392   3.1354   9.2165   1.5505  -1.6109  -4.1076   0.00    0.0
2013/04/22 02:32:30.000   31.099661338  121.200457454    20.2070   5   8   3.8392   3.1362   9.2270   1.5506  -1.5974  -4.1054   0.00    0.0
2013/04/22 02:33:00.000   31.099661600  121.200456197    20.8688   5   8   3.8391   3.1370   9.2367   1.5505  -1.5835  -4.1027   0.00    0.0
2013/04/22 02:33:30.000   31.099664720  121.200453203    20.1214   5   8   3.8390   3.1379   9.2456   1.5505  -1.5690  -4.0993   0.00    0.0
2013/04/22 02:34:00.000   31.099658021  121.200454208    20.6764   5   8   3.8387   3.1388   9.2536   1.5505  -1.5541  -4.0954   0.00    0.0
2013/04/22 02:34:30.000   31.099661471  121.200452232    20.4459   5   8   3.8384   3.1398   9.2608   1.5504  -1.5387  -4.0908   0.00    0.0
2013/04/22 02:35:00.000   31.099660020  121.200450283    19.8403   5   8   3.8379   3.1409   9.2671   1.5503  -1.5227  -4.0857   0.00    0.0
2013/04/22 02:35:30.000   31.099663692  121.200456878    19.8288   5   8   3.8374   3.1420   9.2725   1.5501  -1.5063  -4.0801   0.00    0.0
2013/04/22 02:36:00.000   31.099665233  121.200457192    18.7959   5   8   3.8368   3.1431   9.2771   1.5500  -1.4892  -4.0738   0.00    0.0
2013/04/22 02:36:30.000   31.099661375  121.200452763    19.2440   5   8   3.8362   3.1443   9.2809   1.5498  -1.4716  -4.0669   0.00    0.0
2013/04/22 02:37:00.000   31.099659528  121.200447917    20.9095   5   8   3.8354   3.1456   9.2838   1.5496  -1.4534  -4.0595   0.00    0.0
2013/04/22 02:37:30.000   31.099662702  121.200454130    19.7460   5   8   3.8346   3.1469   9.2858   1.5494  -1.4346  -4.0515   0.00    0.0
2013/04/22 02:38:00.000   31.099663635  121.200455500    19.2956   5   8   3.8337   3.1482   9.2871   1.5492  -1.4152  -4.0429   0.00    0.0
2013/04/22 02:38:30.000   31.099663401  121.200454626    19.6624   5   8   3.8327   3.1497   9.2875   1.5490  -1.3951  -4.0337   0.00    0.0
2013/04/22 02:39:00.000   31.099662246  121.200449362    19.1677   5   8   3.8317   3.1511   9.2871   1.5487  -1.3743  -4.0240   0.00    0.0
2013/04/22 02:39:30.000   31.099662745  121.200448322    19.6098   5   8   3.8306   3.1527   9.2860   1.5484  -1.3528  -4.0137   0.00    0.0
2013/04/22 02:40:00.000   31.099659195  121.200452772    19.8939   5   8   3.8295   3.1542   9.2840   1.5482  -1.3306  -4.0028   0.00    0.0
2013/04/22 02:40:30.000   31.099663641  121.200452563    18.5184   5   8   3.8283   3.1559   9.2813   1.5479  -1.3075  -3.9914   0.00    0.0
2013/04/22 02:41:00.000   31.099662844  121.200453726    19.4887   5   8   3.8270   3.1576   9.2778   1.5476  -1.2837  -3.9794   0.00    0.0
2013/04/22 02:41:30.000   31.099659920  121.200453584    20.0096   5   8   3.8257   3.1593   9.2735   1.5473  -1.2591  -3.9669   0.00    0.0
2013/04/22 02:42:00.000   31.099659561  121.200449643    20.0968   5   8   3.8244   3.1611   9.2685   1.5470  -1.2335  -3.9538   0.00    0.0
2013/04/22 02:42:30.000   31.099659939  121.200452690    20.0819   5   8   3.8230   3.1630   9.2628   1.5466  -1.2070  -3.9402   0.00    0.0
2013/04/22 02:43:00.000   31.099665593  121.200454734    19.3768   5   8   3.8216   3.1650   9.2564   1.5463  -1.1795  -3.9260   0.00    0.0
2013/04/22 02:43:30.000   31.099665004  121.200451683    19.7320   5   8   3.8201   3.1669   9.2493   1.5460  -1.1509  -3.9114   0.00    0.0
2013/04/22 02:44:00.000   31.099665263  121.200454400    18.6295   5   8   3.8186   3.1690   9.2416   1.5457  -1.1212  -3.8962   0.00    0.0
2013/04/22 02:44:30.000   31.099659492  121.200453358    18.8524   5   8   3.8171   3.1711   9.2331   1.5454  -1.0903  -3.8805   0.00    0.0
2013/04/22 02:45:00.000   31.099660968  121.200452985    19.1249   5   8   3.8156   3.1733   9.2241   1.5451  -1.0580  -3.8643   0.00    0.0
2013/04/22 02:45:30.000   31.099657881  121.200450585    19.9898   5   8   3.8141   3.1755   9.2145   1.5449  -1.0243  -3.8476   0.00    0.0
2013/04/22 02:46:00.000   31.099661941  121.200452744    19.0859   5   8   3.8125   3.1778   9.2042   1.5446  -0.9891  -3.8304   0.00    0.0
2013/04/22 02:46:30.000   31.099663347  121.200452652    19.8404   5   8   3.8110   3.1802   9.1934   1.5444  -0.9520  -3.8128   0.00    0.0
2013/04/22 02:47:00.000   31.099661891  121.200455845    19.9212   5   8   3.8094   3.1826   9.1821   1.5441  -0.9131  -3.7946   0.00    0.0
2013/04/22 02:47:30.000   31.099666744  121.200455954    19.5248   5   8   3.8079   3.1851   9.1702   1.5439  -0.8720  -3.7761   0.00    0.0
2013/04/22 02:48:00.000   31.099663642  121.200454102    19.7457   5   8   3.8064   3.1876   9.1578   1.5437  -0.8283  -3.7570   0.00    0.0
2013/04/22 02:48:30.000   31.099660127  121.200451402    20.7879   5   8   3.8049   3.1902   9.1449   1.5436  -0.7817  -3.7375   0.00    0.0
2013/04/22 02:49:00.000   31.099664673  121.200454397    20.5130   5   8   3.8034   3.1929   9.1316   1.5434  -0.7317  -3.7176   0.00    0.0
2013/04/22 02:49:30.000   31.099662378  121.200458549    20.5365   5   8   3.8019   3.1957   9.1178   1.5433  -0.6775  -3.6973   0.00    0.0
2013/04/22 02:50:00.000   31.099661936  121.200454416    20.3764   5   8   3.8005   3.1985   9.1036   1.5432  -0.6180  -3.6765   0.00    0.0
2013/04/22 02:50:30.000   31.099662563  121.200455160    20.5642   5   8   3.7991   3.2013   9.0890   1.5432  -0.5515  -3.6553   0.00    0.0
2013/04/22 02:51:00.000   31.099659954  121.200452638    20.5438   5   8   3.7977   3.2043   9.0740   1.5432  -0.4751  -3.6338   0.00    0.0
2013/04/22 02:51:30.000   31.099661475  121.200449107    20.7959   5   8   3.7964   3.2073   9.0586   1.5432  -0.3829  -3.6118   0.00    0.0
2013/04/22 02:52:00.000   31.099662385  121.200452493    20.3304   5   8   3.7951   3.2104   9.0430   1.5432  -0.2587  -3.5894   0.00    0.0
2013/04/22 02:52:30.000   31.099659516  121.200455290    20.7722   5   8   3.7938   3.2135   9.0270   1.5433   0.1155  -3.5667   0.00    0.0
2013/04/22 02:53:00.000   31.099662256  121.200455481    20.6295   5   8   3.7926   3.2168   9.0107   1.5435   0.3070  -3.5436   0.00    0.0
2013/04/22 02:53:30.000   31.099660523  121.200449278    20.3452   5   8   3.7915   3.2200   8.9942   1.5436   0.4192  -3.5201   0.00    0.0
2013/04/22 02:54:00.000   31.099656280  121.200448752    20.0721   5   8   3.7905   3.2234   8.9774   1.5439   0.5076  -3.4963   0.00    0.0
2013/04/22 02:54:30.000   31.099661110  121.200449812    20.1999   5   8   3.7895   3.2268   8.9603   1.5441   0.5833  -3.4721   0.00    0.0
2013/04/22 02:55:00.000   31.099663791  121.200456638    20.4618   5   8   3.7885   3.2303   8.9431   1.5444   0.6506  -3.4476   0.00    0.0
2013/04/22 02:55:30.000   31.099659393  121.200456349    20.5715   5   8   3.7877   3.2339   8.9257   1.5448   0.7120  -3.4227   0.00    0.0
2013/04/22 02:56:00.000   31.099661098  121.200455789    19.5283   5   8   3.7869   3.2376   8.9081   1.5452   0.7687  -3.3975   0.00    0.0
2013/04/22 02:56:30.000   31.099662209  121.200456385    20.7452   5   8   3.7861   3.2413   8.8904   1.5457   0.8219  -3.3720   0.00    0.0
2013/04/22 02:57:00.000   31.099664439  121.200453046    19.5738   5   8   3.7855   3.2451   8.8725   1.5462   0.8721  -3.3462   0.00    0.0
2013/04/22 02:57:30.000   31.099661094  121.200455932    20.1030   5   8   3.7850   3.2489   8.8545   1.5467   0.9198  -3.3200   0.00    0.0
2013/04/22 02:58:00.000   31.099662746  121.200461482    20.1529   5   8   3.7845   3.2529   8.8365   1.5473   0.9654  -3.2936   0.00    0.0
2013/04/22 02:58:30.000   31.099662587  121.200458198    20.2757   5   8   3.7841   3.2569   8.8184   1.5480   1.0091  -3.2668   0.00    0.0
2013/04/22 02:59:00.000   31.099660378  121.200456075    20.3504   5   8   3.7838   3.2610   8.8002   1.5487   1.0512  -3.2397   0.00    0.0
2013/04/22 02:59:30.000   31.099661196  121.200454169    21.0670   5   8   3.7836   3.2651   8.7820   1.5495   1.0919  -3.2124   0.00    0.0
2013/04/22 03:00:00.000   31.099663239  121.200451879    21.0502   5   8   3.6405   3.1696   8.6313   1.2698   1.5218  -3.0171   0.00    0.0
2013/04/22 03:00:30.000   31.099662606  121.200451830    21.2085   5   8   3.6404   3.1748   8.6139   1.2722   1.5496  -2.9875   0.00    0.0
2013/04/22 03:01:00.000   31.099659938  121.200452583    21.3884   5   8   3.6405   3.1800   8.5964   1.2747   1.5771  -2.9576   0.00    0.0
2013/04/22 03:01:30.000   31.099663751  121.200455610    21.3019   5   8   3.6408   3.1852   8.5790   1.2773   1.6041  -2.9275   0.00    0.0
2013/04/22 03:02:00.000   31.099667895  121.200455854    20.6759   5   8   3.6411   3.1906   8.5616   1.2800   1.6307  -2.8970   0.00    0.0
2013/04/22 03:02:30.000   31.099667289  121.200454109    20.9246   5   8   3.6416   3.1960   8.5444   1.2828   1.6569  -2.8664   0.00    0.0
2013/04/22 03:03:00.000   31.099663554  121.200454803    21.5985   5   8   3.6423   3.2015   8.5272   1.2857   1.6828  -2.8354   0.00    0.0
2013/04/22 03:03:30.000   31.099665065  121.200459239    20.6822   5   8   3.6431   3.2071   8.5102   1.2886   1.7084  -2.8042   0.00    0.0
2013/04/22 03:04:00.000   31.099666918  121.200460494    20.8963   5   8   3.6440   3.2128   8.4933   1.2917   1.7336  -2.7727   0.00    0.0
2013/04/22 03:04:30.000   31.099667883  121.200459095    20.5835   5   8   3.6451   3.2186   8.4765   1.2949   1.7585  -2.7409   0.00    0.0
2013/04/22 03:05:00.000   31.099666033  121.200459215    20.6290   5   8   3.6463   3.2244   8.4598   1.2981   1.7832  -2.7089   0.00    0.0
2013/04/22 03:05:30.000   31.099664143  121.200455649    21.6918   5   8   3.6476   3.2303   8.4433   1.3014   1.8076  -2.6766   0.00    0.0
2013/04/22 03:06:00.000   31.099668004  121.200454832    21.5826   5   8   3.6491   3.2363   8.4269   1.3048   1.8316  -2.6440   0.00    0.0
2013/04/22 03:06:30.000   31.099667511  121.200454432    20.9529   5   8   3.6507   3.2424   8.4107   1.3083   1.8555  -2.6111   0.00    0.0
2013/04/22 03:07:00.000   31.099665217  121.200457476    21.6072   5   8   3.6524   3.2486   8.3947   1.3118   1.8791  -2.5779   0.00    0.0
2013/04/22 03:07:30.000   31.099666668  121.200453957    21.0818   5   8   3.6543   3.2548   8.3789   1.3154   1.9025  -2.5444   0.00    0.0
2013/04/22 03:08:00.000   31.099666897  121.200457607    21.7066   5   8   3.6563   3.2611   8.3632   1.3191   1.9256  -2.5106   0.00    0.0
2013/04/22 03:08:30.000   31.099664118  121.200453898    21.1574   5   8   3.6585   3.2676   8.3477   1.3228   1.9485  -2.4765   0.00    0.0
2013/04/22 03:09:00.000   31.099666310  121.200454832    21.4692   5   8   3.6608   3.2740   8.3325   1.3267   1.9713  -2.4420   0.00    0.0
2013/04/22 03:09:30.000   31.099666561  121.200454224    21.5542   5   8   3.6632   3.2806   8.3175   1.3305   1.9938  -2.4073   0.00    0.0
2013/04/22 03:10:00.000   31.099663064  121.200450573    21.0879   5   8   3.6658   3.2873   8.3027   1.3345   2.0162  -2.3722   0.00    0.0
2013/04/22 03:10:30.000   31.099666157  121.200452911    20.9167   5   8   3.6684   3.2940   8.2882   1.3384   2.0383  -2.3367   0.00    0.0
2013/04/22 03:11:00.000   31.099665672  121.200449977    21.9729   5   8   3.6712   3.3008   8.2738   1.3425   2.0603  -2.3009   0.00    0.0
2013/04/22 03:11:30.000   31.099666510  121.200454182    21.6173   5   8   3.6742   3.3077   8.2598   1.3465   2.0821  -2.2648   0.00    0.0
2013/04/22 03:12:00.000   31.099671201  121.200456290    21.3288   5   8   3.6772   3.3147   8.2460   1.3507   2.1038  -2.2282   0.00    0.0
2013/04/22 03:12:30.000   31.099669661  121.200458803    23.1285   5   8   3.6804   3.3218   8.2324   1.3548   2.1253  -2.1913   0.00    0.0
2013/04/22 03:13:00.000   31.099669977  121.200456281    23.1701   5   8   3.6837   3.3290   8.2192   1.3590   2.1467  -2.1540   0.00    0.0
2013/04/22 03:13:30.000   31.099669047  121.200455707    22.5751   5   8   3.6871   3.3362   8.2062   1.3632   2.1679  -2.1162   0.00    0.0
2013/04/22 03:14:00.000   31.099667674  121.200456393    22.4734   5   8   3.6906   3.3435   8.1935   1.3675   2.1890  -2.0780   0.00    0.0
2013/04/22 03:14:30.000   31.099668423  121.200459052    22.4982   5   8   3.6942   3.3509   8.1811   1.3718   2.2100  -2.0393   0.00    0.0
2013/04/22 03:15:00.000   31.099667959  121.200454754    21.9360   5   8   3.6980   3.3584   8.1689   1.3761   2.2309  -2.0001   0.00    0.0
2013/04/22 03:15:30.000   31.099672977  121.200456098    23.5256   5   8   3.7018   3.3660   8.1571   1.3804   2.2516  -1.9604   0.00    0.0
2013/04/22 03:16:00.000   31.099670400  121.200455628    23.5881   5   8   3.7058   3.3736   8.1455   1.3847   2.2722  -1.9202   0.00    0.0
2013/04/22 03:16:30.000   31.099670392  121.200456475    22.4912   5   8   3.7098   3.3814   8.1343   1.3890   2.2927  -1.8794   0.00    0.0
2013/04/22 03:17:00.000   31.099669833  121.200457915    22.1673   5   8   3.7139   3.3892   8.1233   1.3933   2.3131  -1.8380   0.00    0.0
2013/04/22 03:17:30.000   31.099665773  121.200456544    22.5162   5   8   3.7182   3.3971   8.1127   1.3977   2.3334  -1.7960   0.00    0.0
2013/04/22 03:18:00.000   31.099667402  121.200461250    23.3645   5   8   3.7225   3.4051   8.1023   1.4020   2.3536  -1.7533   0.00    0.0
2013/04/22 03:18:30.000   31.099669357  121.200457714    23.7800   5   8   3.7269   3.4132   8.0923   1.4063   2.3737  -1.7098   0.00    0.0
2013/04/22 03:19:00.000   31.099672510  121.200458788    23.8377   5   8   3.7314   3.4213   8.0826   1.4106   2.3937  -1.6656   0.00    0.0
2013/04/22 03:19:30.000   31.099669380  121.200458272    24.6883   5   8   3.7360   3.4296   8.0732   1.4149   2.4136  -1.6206   0.00    0.0
2013/04/22 03:20:00.000   31.099667128  121.200461815    24.5145   5   8   3.7406   3.4379   8.0641   1.4191   2.4334  -1.5747   0.00    0.0
2013/04/22 03:20:30.000   31.099671404  121.200465894    24.2226   5   8   3.7453   3.4463   8.0553   1.4233   2.4532  -1.5278   0.00    0.0
2013/04/22 03:21:00.000   31.099674323  121.200462316    23.2143   5   8   3.7501   3.4548   8.0468   1.4275   2.4728  -1.4799   0.00    0.0
2013/04/22 03:21:30.000   31.099672311  121.200460092    23.6375   5   8   3.7549   3.4634   8.0386   1.4316   2.4924  -1.4308   0.00    0.0
2013/04/22 03:22:00.000   31.099670217  121.200461444    24.1554   5   8   3.7598   3.4721   8.0307   1.4357   2.5119  -1.3804   0.00    0.0
2013/04/22 03:22:30.000   31.099671855  121.200463128    23.7658   5   8   3.7648   3.4808   8.0231   1.4397   2.5314  -1.3287   0.00    0.0
2013/04/22 03:23:00.000   31.099672200  121.200457245    23.8920   5   8   3.7698   3.4896   8.0159   1.4437   2.5507  -1.2754   0.00    0.0
2013/04/22 03:23:30.000   31.099667630  121.200456539    23.6811   5   8   3.7748   3.4986   8.0089   1.4476   2.5700  -1.2203   0.00    0.0
2013/04/22 03:24:00.000   31.099671413  121.200460519    23.4426   5   8   3.7799   3.5076   8.0022   1.4514   2.5893  -1.1633   0.00    0.0
2013/04/22 03:24:30.000   31.099673992  121.200465257    24.6640   5   8   3.7850   3.5166   7.9958   1.4552   2.6084  -1.1040   0.00    0.0
2013/04/22 03:25:00.000   31.099671525  121.200463761    22.5907   5   8   3.7902   3.5258   7.9898   1.4589   2.6275  -1.0420   0.00    0.0
2013/04/22 03:25:30.000   31.099673824  121.200465066    24.1842   5   8   3.7954   3.5351   7.9840   1.4624   2.6466  -0.9769   0.00    0.0
2013/04/22 03:26:00.000   31.099668129  121.200464409    25.0609   5   8   3.8005   3.5444   7.9785   1.4659   2.6655  -0.9080   0.00    0.0
2013/04/22 03:26:30.000   31.099667749  121.200459832    24.0871   5   8   3.8058   3.5538   7.9733   1.4693   2.6844  -0.8344   0.00    0.0
2013/04/22 03:27:00.000   31.099665136  121.200453044    22.8933   5   9   3.6682   3.0990   6.9125   0.5926   0.5796  -2.1599   0.00    0.0
2013/04/22 03:27:30.000   31.099670725  121.200456141    22.9323   5   9   3.6719   3.1021   6.9057   0.5789   0.6151  -2.1372   0.00    0.0
2013/04/22 03:28:00.000   31.099668652  121.200454040    23.2890   5   9   3.6757   3.1053   6.8990   0.5648   0.6485  -2.1144   0.00    0.0
2013/04/22 03:28:30.000   31.099659993  121.200448285    21.1038   5   8   4.1637   3.2146   7.7132   1.3780   1.8162   1.5400   0.00    0.0
2013/04/22 03:29:00.000   31.099664206  121.200453960    20.7567   5   7   4.1706   3.4955   8.9106   1.4083  -1.6490   1.4912   0.00    0.0
2013/04/22 03:29:30.000   31.099656232  121.200450014    20.4834   5   7   4.1766   3.4947   8.9283   1.3893  -1.6279   1.5868   0.00    0.0
2013/04/22 03:30:00.000   31.099657953  121.200448761    19.5323   5   7   4.1827   3.4940   8.9466   1.3701  -1.6071   1.6770   0.00    0.0
