     2.10           OBSERVATION DATA    G (GPS)             RINEX VERSION / TYPE
teqc  2002Mar14                         20130423 00:05:03UTCPGM / RUN BY / DATE
MSWin2000|IAx86-PII|bcc32 5.0|MSWin95/98/NT/2000|486/DX+    COMMENT
BIT 2 OF LLI FLAGS DATA COLLECTED UNDER A/S CONDITION       COMMENT
TWTF                                                        MARKER NAME
23603S002                                                   MARKER NUMBER
HMPENG              CHTTL                                   OBSERVER / AGENCY
RT920012202         ASHTECH Z-XII3T     1L01      1D04      REC # / TYPE / VERS
CR620012101         ASH701945C_M    SCIS                    ANT # / TYPE
 -2994437.2459  4951322.1782  2674503.2612                  APPROX POSITION XYZ
        0.0000        0.0000        0.0000                  ANTENNA: DELTA H/E/N
     1     1                                                WAVELENGTH FACT L1/2
     9    L1    L2    C1    P1    P2    D1    D2    S1    S2# / TYPES OF OBSERV
 SNR is mapped to RINEX snr flag value [1-9]                COMMENT
  L1: 1 -> 1;  90 -> 5; 210 -> 9                            COMMENT
  L2: 1 -> 1; 150 -> 5; 250 -> 9                            COMMENT
  2013     4    22     0     0    0.0000000     GPS         TIME OF FIRST OBS
                                                            END OF HEADER
 13  4 22  0  0  0.0000000  0  9G 5G26G29G24G 2G15G18G 9G21
 -12185277.92049  -9451631.67546  22744862.5894   22744862.8854   22744868.1574
     -1406.7124      -1096.1344        228.0004        184.0004
 -16871844.47049 -12537717.06146  21873861.6904   21873862.0734   21873866.2474
     -2919.2114      -2274.7044        232.0004        182.0004
  -6066797.47549  -4708528.44346  23108902.0624   23108902.1794   23108907.6434
     -2039.8414      -1589.4754        222.0004        170.0004
 -14885655.90449 -11588321.78147  21485663.0574   21485664.2074   21485670.3114
      2653.0434       2067.3034        234.0004        197.0004
  -1451905.51349  -1121946.33045  24018341.0144   24018342.8164   24018343.5314
     -3708.3724      -2889.6354        212.0004        149.0004
 -13282359.57649 -10335474.01047  20609987.4994   20609987.3484   20609990.7444
      -844.1644       -657.7924        244.0004        211.0004
  -1885970.50649  -1460679.82845  24559970.4824   24559968.9464   24559975.3244
      2167.4344       1688.9134        207.0004        142.0004
 -20051281.05749 -15612293.47847  21492953.7644   21492953.3434   21492957.6074
     -1393.4174      -1085.7754        238.0004        192.0004
 -11689662.94949  -9084261.65846  22958565.5544   22958565.4254   22958570.2434
      2956.9174       2304.0884        223.0004        169.0004
 13  4 22  0  0 30.0000000  0  9G 5G26G29G24G 2G15G18G 9G21
 -12142999.58749  -9418687.54646  22752907.8654   22752908.4044   22752913.4414
     -1411.8184      -1100.1054        228.0004        185.0004
 -16784199.00449 -12469421.96846  21890540.1154   21890539.4204   21890544.6834
     -2923.8414      -2278.3084        233.0004        181.0004
  -6005502.85249  -4660766.42846  23120566.6384   23120566.3174   23120570.6884
     -2046.4234      -1594.6124        223.0004        170.0004
 -14965062.99749 -11650197.40147  21470552.5924   21470553.6174   21470559.5194
      2640.7474       2057.7274        235.0004        198.0004
  -1340589.49449  -1035206.78945  24039520.1124   24039524.5694   24039528.8864
     -3712.7064      -2892.9924        212.0004        145.0004
 -13256894.25349 -10315630.91047  20614833.7074   20614833.6304   20614836.4774
      -853.4754       -665.0414        245.0004        212.0004
  -1951041.28049  -1511384.29045  24547586.9744   24547587.0534   24547592.3514
      2170.6724       1691.4314        207.0004        141.0004
 -20009177.58149 -15579485.60347  21500965.4224   21500965.4804   21500969.2904
     -1413.4784      -1101.4084        238.0004        192.0004
 -11778253.91449  -9153293.53146  22941707.4984   22941707.6414   22941711.4284
      2949.0844       2297.9634        223.0004        168.0004
 13  4 22  0  1  0.0000000  0  9G 5G26G29G24G 2G15G18G 9G21
 -12100566.52049  -9385622.85346  22760982.0534   22760982.9994   22760988.0454
     -1417.0284      -1104.1774        228.0004        184.0004
 -16696416.08849 -12401019.75746  21907245.1434   21907244.9894   21907249.4034
     -2928.3764      -2281.8324        233.0004        182.0004
  -5944012.35349  -4612851.78046  23132267.4734   23132268.2704   23132272.5044
     -2052.9224      -1599.6764        221.0004        169.0004
 -15044100.47049 -11711785.01247  21455512.1014   21455513.1054   21455519.0324
      2628.3824       2048.0944        235.0004        199.0004
  -1229142.98749   -948365.50845  24060729.2934   24060729.6404   24060739.5134
     -3716.9684      -2896.3334        206.0004        149.0004
 -13231151.61249 -10295571.71147  20619731.8114   20619731.9724   20619735.3084
      -862.6764       -672.2174        244.0004        212.0004
  -2016209.02249  -1562164.32745  24535185.9354   24535184.9854   24535190.0234
      2173.8394       1693.8984        205.0004        140.0004
 -19966473.27749 -15546209.54447  21509092.5084   21509092.1424   21509095.3654
     -1433.4674      -1116.9954        239.0004        192.0004
 -11866606.17549  -9222139.40946  22924894.6284   22924893.7794   22924898.0144
      2941.0324       2291.7094        223.0004        167.0004
 13  4 22  0  1 30.0000000  0  9G 5G26G29G24G 2G15G18G 9G21
 -12057977.53549  -9352436.66346  22769086.4864   22769087.4364   22769092.7204
     -1422.2454      -1108.2334        227.0004        184.0004
 -16608498.18549 -12332512.35646  21923974.9364   21923974.4974   21923979.9914
     -2932.8654      -2285.3474        232.0004        180.0004
  -5882329.33049  -4564787.12046  23144005.6564   23144005.2804   23144010.7124
     -2059.3264      -1604.6764        221.0004        169.0004
 -15122765.26849 -11773082.22847  21440543.2154   21440543.9134   21440549.7104
      2615.9294       2038.3904        237.0004        199.0004
  -1117568.42849   -861424.46845  24081966.3134   24081961.7854   24081967.1044
     -3721.2934      -2899.7054        199.0004        146.0004
 -13205133.19249 -10275297.62247  20624683.1634   20624683.2474   20624686.4604
      -871.8584       -679.3704        244.0004        212.0004
  -2081473.50849  -1613019.75845  24522764.8264   24522764.5794   24522771.8464
      2177.1144       1696.4514        204.0004        139.0004
 -19923169.69049 -15512466.51547  21517332.3514   21517332.0354   21517336.4594
     -1453.4434      -1132.5484        238.0004        192.0004
 -11954717.24749  -9290797.35146  22908127.1974   22908127.2874   22908131.3074
      2933.0034       2285.4524        222.0004        168.0004
 13  4 22  0  2  0.0000000  0  9G 5G26G29G24G 2G15G18G 9G21
 -12015231.83449  -9319128.36146  22777220.8374   22777222.0894   22777226.9474
     -1427.4964      -1112.3294        228.0004        184.0004
 -16520447.64349 -12263901.61046  21940730.4424   21940729.6984   21940735.3684
     -2937.2584      -2288.7714        230.0004        179.0004
  -5820456.74449  -4516574.74146  23155779.5464   23155778.6254   23155785.1944
     -2065.6194      -1609.5744        220.0004        167.0004
 -15201054.96149 -11834087.15247  21425645.7144   21425645.8754   21425651.8544
      2603.3734       2028.6014        237.0004        200.0004
  -1005868.24849   -774385.62245  24103225.3624   24103220.3054   24103222.7354
     -3725.4294      -2902.9294        212.0004        146.0004
 -13178840.74049 -10254810.00447  20629686.3684   20629686.5744   20629689.5034
      -880.9494       -686.4524        245.0004        212.0004
  -2146834.90249  -1663950.67845  24510326.7654   24510326.9194   24510333.3174
      2180.2994       1698.9364        203.0004        139.0004
 -19879268.13349 -15478257.53347  21525686.1624   21525686.6314   21525690.6544
     -1473.3344      -1148.0604        237.0004        192.0004
 -12042584.94849  -9359265.64846  22891407.0934   22891407.0784   22891410.6714
      2924.8554       2279.1174        223.0004        166.0004
 13  4 22  0  2 30.0000000  0  9G 5G26G29G24G 2G15G18G 9G21
 -11972328.71349  -9285697.40246  22785385.3354   22785385.4744   22785390.9544
     -1432.7504      -1116.4244        227.0004        183.0004
 -16432266.93949 -12195189.44346  21957509.8244   21957510.0604   21957515.9294
     -2941.5184      -2292.0864        228.0004        179.0004
  -5758397.55449  -4468216.96046  23167589.8244   23167588.6834   23167594.5594
     -2071.6584      -1614.2764        220.0004        167.0004
 -15278966.75749 -11894797.61247  21410819.1714   21410819.2324   21410825.5454
      2590.7224       2018.7364        238.0004        200.0004
   -894045.00749   -687250.88745  24124501.7374   24124501.9534   24124505.7494
     -3729.4674      -2906.0704        217.0004        148.0004
 -13152276.27649 -10234110.42647  20634741.4184   20634741.4114   20634744.7924
      -890.0074       -693.5114        244.0004        212.0004
  -2212293.02949  -1714956.98845  24497871.9994   24497870.8964   24497878.1694
      2183.5534       1701.4634        205.0004        138.0004
 -19834770.34649 -15443583.96647  21534153.1474   21534153.4024   21534158.2634
     -1493.1834      -1163.5304        235.0004        191.0004
 -12130205.96349  -9427541.74746  22874733.0304   22874732.8304   22874737.2634
      2916.5354       2272.6234        224.0004        166.0004
 13  4 22  0  3  0.0000000  0  9G 5G26G29G24G 2G15G18G 9G21
 -11929267.55149  -9252143.29046  22793580.2884   22793580.1514   22793584.9534
     -1438.0234      -1120.5484        229.0004        184.0004
 -16343958.46549 -12126377.70946  21974314.8364   21974315.1904   21974320.7754
     -2945.7364      -2295.3894        229.0004        177.0004
  -5696154.80549  -4419716.13346  23179434.3014   23179433.7704   23179438.5354
     -2077.7594      -1619.0344        220.0004        167.0004
 -15356498.25349 -11955211.74547  21396065.4564   21396065.8764   21396071.9634
      2578.0284       2008.8584        237.0004        200.0004
   -782101.00249   -600022.02045  24145801.6744   24145805.4964   24145805.7214
     -3733.4044      -2909.1484        215.0004        148.0004
 -13125441.56049 -10213200.26047  20639848.1054   20639848.3094   20639851.3544
      -898.9824       -700.5044        245.0004        212.0004
  -2277847.69349  -1766038.51545  24485399.6124   24485397.5684   24485402.4234
      2186.6954       1703.9154        206.0004        138.0004
 -19789677.77449 -15408446.93547  21542734.4954   21542734.8994   21542738.9534
     -1512.9664      -1178.9344        235.0004        191.0004
 -12217577.95649  -9495623.78746  22858106.2094   22858106.3704   22858110.2884
      2908.2504       2266.1574        222.0004        167.0004
 13  4 22  0  3 30.0000000  0  9G 5G26G29G24G 2G15G18G 9G21
 -11886047.38149  -9218465.27746  22801804.6194   22801804.7704   22801809.5694
     -1443.2924      -1124.6334        229.0004        183.0004
 -16255524.62349 -12057468.28346  21991142.9414   21991143.4404   21991148.8434
     -2949.8714      -2298.5984        230.0004        179.0004
  -5633731.34549  -4371074.50346  23191313.3564   23191312.6274   23191317.3684
     -2083.7544      -1623.7014        221.0004        166.0004
 -15433646.72249 -12015327.41047  21381384.7324   21381384.6654   21381391.1554
      2565.1864       1998.8484        238.0004        200.0004
   -670039.15049   -512701.31545  24167124.7774   24167127.2304   24167130.8514
     -3737.3854      -2912.2444        209.0004        144.0004
 -13098338.15849 -10192080.72847  20645005.0874   20645005.4264   20645008.8434
      -907.9124       -707.4614        244.0004        212.0004
  -2343498.97149  -1817195.32645  24472903.8224   24472902.1144   24472911.1794
      2189.9434       1706.4514        203.0004        137.0004
 -19743992.05649 -15372847.69947  21551428.1014   21551428.1954   21551432.9344
     -1532.7304      -1194.3344        235.0004        191.0004
 -12304699.02249  -9563510.30546  22841527.7834   22841527.1344   22841531.0284
      2899.7874       2259.5854        222.0004        167.0004
 13  4 22  0  4  0.0000000  0  9G 5G26G29G24G 2G15G18G 9G21
 -11842667.73549  -9184662.99246  22810059.7034   22810059.7084   22810064.8954
     -1448.6664      -1128.8244        229.0004        183.0004
 -16166967.75949 -11988463.00246  22007994.9724   22007995.2424   22008000.6904
     -2953.9414      -2301.7674        231.0004        180.0004
  -5571130.18549  -4322294.41846  23203224.7654   23203225.2614   23203230.0544
     -2089.6094      -1628.2644        219.0004        166.0004
 -15510409.29549 -12075142.38147  21366777.1734   21366776.8644   21366783.5654
      2552.2834       1988.7894        238.0004        201.0004
   -557861.61949   -425290.47145  24188471.7724   24188471.2954   24188481.4874
     -3741.1724      -2915.1824        200.0004        146.0004
 -13070968.20149 -10170753.49748  20650213.6444   20650214.1104   20650217.5644
      -916.7574       -714.3574        244.0004        213.0004
  -2409246.55549  -1868427.19145  24460392.0194   24460390.0364   24460399.4124
      2193.1494       1708.9454        200.0004        137.0004
 -19697714.54549 -15336787.32947  21560234.3394   21560234.9754   21560239.5194
     -1552.4494      -1209.6974        235.0004        192.0004
 -12391565.37549  -9631198.34546  22824997.7444   22824997.0544   22825001.9964
      2891.2474       2252.9284        222.0004        166.0004
 13  4 22  0  4 30.0000000  0  9G 5G26G29G24G 2G15G18G 9G21
 -11799127.81749  -9150735.82646  22818345.1964   22818344.9434   22818349.7464
     -1454.0134      -1132.9884        228.0004        183.0004
 -16078290.28749 -11919363.73146  22024869.6704   22024870.3874   22024875.2304
     -2957.9174      -2304.8484        231.0004        180.0004
  -5508354.35349  -4273378.21246  23215170.2434   23215170.9944   23215175.5644
     -2095.3954      -1632.7744        219.0004        166.0004
 -15586783.31649 -12134654.58547  21352243.2384   21352243.3934   21352250.2024
      2539.2914       1978.6714        237.0004        201.0004
   -445570.71949   -337791.29845  24209842.7744   24209840.1244   24209845.8824
     -3745.0174      -2918.1914        197.0004        144.0004
 -13043333.45049 -10149219.93647  20655472.1614   20655472.4934   20655476.2214
      -925.5664       -721.2184        244.0004        212.0004
  -2475090.64649  -1919734.23645  24447861.8994   24447861.9214   24447868.8694
      2196.4304       1711.5024        199.0004        136.0004
 -19650847.25649 -15300267.39747  21569153.4934   21569153.5224   21569158.5834
     -1572.0644      -1224.9884        235.0004        192.0004
 -12478174.62749  -9698686.05446  22808516.3294   22808515.9034   22808520.1054
      2882.6834       2246.2644        222.0004        166.0004
 13  4 22  0  5  0.0000000  0  9G 5G26G29G24G 2G15G18G 9G21
 -11755426.92049  -9116683.20046  22826661.2774   22826661.4094   22826666.1644
     -1459.3794      -1137.1754        229.0004        182.0004
 -15989494.42549 -11850172.20746  22041767.8174   22041768.1284   22041772.7994
     -2961.8174      -2307.9024        231.0004        180.0004
  -5445406.82149  -4224328.22146  23227149.2864   23227150.1204   23227155.0674
     -2101.0344      -1637.1744        220.0004        167.0004
 -15662766.43449 -12193862.19247  21337783.8564   21337784.3414   21337791.0684
      2526.2454       1968.5064        236.0004        200.0004
   -333169.20349   -250205.96445  24231230.6734   24231228.9214   24231237.4654
     -3748.4454      -2920.8654        205.0004        142.0004
 -13015435.39949 -10127481.20047  20660781.2264   20660781.5534   20660785.1494
      -934.2994       -728.0264        244.0004        212.0004
  -2541031.08049  -1971116.36945  24435316.2064   24435313.5924   24435321.4614
      2199.6034       1713.9744        202.0004        135.0004
 -19603391.64449 -15263289.03447  21578184.0884   21578184.0344   21578189.2954
     -1591.6424      -1240.2314        236.0004        193.0004
 -12564524.77949  -9765971.86046  22792084.6964   22792084.7534   22792088.6844
      2874.0344       2239.5264        223.0004        167.0004
 13  4 22  0  5 30.0000000  0  9G 5G26G29G24G 2G15G18G 9G21
 -11711564.39449  -9082504.63146  22835007.1404   22835007.7374   22835012.9954
     -1464.7844      -1141.3924        228.0004        183.0004
 -15900582.66649 -11780890.38846  22058686.5594   22058687.3114   22058691.8884
     -2965.6204      -2310.8644        231.0004        180.0004
  -5382290.69449  -4175146.85946  23239159.4394   23239160.2714   23239165.2184
     -2106.6864      -1641.5644        222.0004        168.0004
 -15738355.84849 -12252763.01947  21323399.5244   21323400.1934   21323406.4194
      2513.0974       1958.2644        236.0004        201.0004
   -220659.57849   -162536.39145  24252639.9764   24252639.6694   24252645.5554
     -3752.1124      -2923.7104        206.0004        143.0004
 -12987276.22249 -10105538.99947  20666139.4854   20666139.9884   20666143.5924
      -942.9644       -734.7744        244.0004        212.0004
  -2607067.55849  -2022573.27845  24422748.4184   24422748.5844   24422754.1694
      2202.9004       1716.5454        202.0004        135.0004
 -19555349.58749 -15225853.70747  21587326.6814   21587326.3734   21587330.9744
     -1611.1514      -1255.4364        235.0004        193.0004
 -12650613.30149  -9833053.80446  22775703.4824   22775701.7844   22775706.3174
      2865.2494       2232.6504        224.0004        167.0004
 13  4 22  0  6  0.0000000  0  9G 5G26G29G24G 2G15G18G 9G21
 -11667539.52949  -9048199.56946  22843384.7234   22843385.7074   22843390.9004
     -1470.1754      -1145.5964        227.0004        182.0004
 -15811557.26349 -11711520.02846  22075627.9764   22075628.0504   22075633.7564
     -2969.4074      -2313.8104        230.0004        179.0004
  -5319008.60449  -4125836.17046  23251201.5754   23251202.1324   23251207.5354
     -2112.1214      -1645.8214        220.0004        168.0004
 -15813549.18149 -12311355.20647  21309090.8514   21309091.3624   21309097.7494
      2499.7814       1947.8864        237.0004        201.0004
   -108044.18549    -74784.39045  24274070.2984   24274070.6844   24274077.7124
     -3755.5714      -2926.4064        206.0004        144.0004
 -12958857.84649 -10083394.82247  20671547.2424   20671547.7634   20671551.2134
      -951.5764       -741.4844        243.0004        212.0004
  -2673199.91949  -2074104.94045  24410162.1684   24410162.8944   24410170.3974
      2206.0584       1719.0034        202.0004        135.0004
 -19506722.54249 -15187962.54347  21596580.2294   21596579.9004   21596584.8264
     -1630.6304      -1270.6184        236.0004        192.0004
 -12736437.29549  -9899929.63046  22759371.9824   22759371.1874   22759374.4654
      2856.3564       2225.7214        224.0004        169.0004
 13  4 22  0  6 30.0000000  0  9G 5G26G29G24G 2G15G18G 9G21
 -11623351.73149  -9013767.54146  22851793.5974   22851794.5274   22851799.5174
     -1475.6464      -1149.8484        228.0004        183.0004
 -15722420.54349 -11642062.91546  22092589.8694   22092590.4594   22092595.5984
     -2973.0724      -2316.6694        231.0004        179.0004
  -5255563.74149  -4076398.64146  23263275.0964   23263275.6544   23263280.9004
     -2117.5194      -1650.0174        220.0004        167.0004
 -15888343.40649 -12369636.40147  21294857.9454   21294858.6284   21294864.7674
      2486.4834       1937.5204        237.0004        201.0004
      4674.58849     13048.18645  24295519.9904   24295521.5664   24295527.3964
     -3759.0674      -2929.1214        199.0004        144.0004
 -12930182.15749 -10061050.14447  20677004.0554   20677004.6594   20677008.3434
      -960.1244       -748.1454        243.0004        212.0004
  -2739428.01749  -2125711.18245  24397560.5264   24397559.1184   24397565.3424
      2209.2174       1721.4704        203.0004        135.0004
 -19457512.25149 -15149616.90647  21605944.6834   21605943.9724   21605948.7574
     -1650.0604      -1285.7524        236.0004        191.0004
 -12821994.02049  -9966597.17346  22743090.7014   22743089.8824   22743093.5554
      2847.4074       2218.7514        225.0004        170.0004
 13  4 22  0  7  0.0000000  0  9G 5G26G29G24G 2G15G18G 9G21
 -11579000.02249  -8979207.78646  22860234.2284   22860234.6974   22860239.5934
     -1481.1174      -1154.1154        228.0004        183.0004
 -15633174.82849 -11572520.87146  22109573.1454   22109573.5374   22109578.5344
     -2976.6764      -2319.4714        230.0004        178.0004
  -5191959.28149  -4026836.74946  23275378.5054   23275379.2014   23275383.9274
     -2122.7924      -1654.1254        219.0004        167.0004
 -15962736.23049 -12427604.81047  21280701.1454   21280702.0904   21280708.0534
      2473.0474       1927.0434        236.0004        202.0004
    117494.13049    100959.25045  24316990.2304   24316989.6724   24316996.2134
     -3762.3714      -2931.7034        203.0004        143.0004
 -12901250.65849 -10038506.13747  20682509.1754   20682510.2024   20682513.7974
      -968.6074       -754.7624        243.0004        212.0004
  -2805751.94949  -2177392.11345  24384938.6404   24384938.6704   24384944.4504
      2212.3974       1723.9424        203.0004        135.0004
 -19407720.59649 -15110818.25147  21615419.9214   21615418.8914   21615423.6704
     -1669.3964      -1300.8334        236.0004        189.0004
 -12907281.04649 -10033054.57146  22726861.3604   22726860.3444   22726863.4374
      2838.3714       2211.7314        225.0004        170.0004
 13  4 22  0  7 30.0000000  0  9G 5G26G29G24G 2G15G18G 9G21
 -11534483.94449  -8944519.96346  22868705.4154   22868705.7374   22868710.8024
     -1486.5854      -1158.3804        229.0004        183.0004
 -15543822.49449 -11502895.73346  22126576.2344   22126576.0454   22126582.1724
     -2980.1754      -2322.2124        228.0004        175.0004
  -5128197.93149  -3977152.61346  23287511.9534   23287512.7474   23287517.4734
     -2127.9624      -1658.1474        220.0004        167.0004
 -16036725.14049 -12485258.48447  21266621.5154   21266622.6384   21266628.6024
      2459.5684       1916.5474        237.0004        202.0004
    230411.93349    188946.88245  24338478.1564   24338476.9404   24338485.6304
     -3765.5414      -2934.1864        205.0004        143.0004
 -12872065.27749 -10015764.29647  20688063.4084   20688063.7454   20688067.4944
      -977.0564       -761.3474        241.0004        211.0004
  -2872171.60149  -2229147.61745  24372300.3614   24372300.5394   24372305.1624
      2215.6414       1726.4724        204.0004        137.0004
 -19357349.30149 -15071567.93147  21625005.5064   21625004.6374   21625009.2384
     -1688.6694      -1315.8434        236.0004        189.0004
 -12992295.57449 -10099299.62146  22710683.5074   22710681.6734   22710687.0514
      2829.2604       2204.5844        226.0004        172.0004
 13  4 22  0  8  0.0000000  0  9G 5G26G29G24G 2G15G18G 9G21
 -11489802.61749  -8909703.37546  22877208.7164   22877208.6764   22877212.9594
     -1492.1314      -1162.6974        230.0004        183.0004
 -15454365.76849 -11433189.25546  22143599.0384   22143598.7604   22143604.2064
     -2983.6394      -2324.9264        228.0004        174.0004
  -5064282.83549  -3927348.66146  23299675.0964   23299674.8184   23299680.3624
     -2133.0844      -1662.1444        218.0004        166.0004
 -16110307.34249 -12542595.24347  21252619.3194   21252620.3464   21252626.6534
      2445.9294       1905.9194        237.0004        203.0004
    343425.42949    277009.10145  24359983.2164   24359984.7164   24359991.6814
     -3768.7004      -2936.6474        206.0004        144.0004
 -12842627.82249  -9992826.04147  20693664.3734   20693665.4844   20693669.0304
      -985.4214       -767.8574        241.0004        211.0004
  -2938686.83049  -2280977.62145  24359643.5694   24359642.6004   24359647.3194
      2218.7924       1728.9284        205.0004        137.0004
 -19306400.25849 -15031867.41447  21634700.0664   21634699.7524   21634704.0414
     -1707.9124      -1330.8554        236.0004        189.0004
 -13077035.42349 -10165330.62546  22694557.3684   22694556.6984   22694561.7184
      2820.0554       2197.4374        225.0004        171.0004
 13  4 22  0  8 30.0000000  0  9G 5G26G29G24G 2G15G18G 9G21
 -11444955.58149  -8874757.66246  22885742.6904   22885742.9564   22885747.1554
     -1497.6414      -1166.9934        230.0004        182.0004
 -15364806.89449 -11363403.19746  22160641.8674   22160641.6514   22160647.7524
     -2986.9754      -2327.5194        228.0004        174.0004
  -5000217.00149  -3877427.25546  23311866.7654   23311866.2314   23311871.4034
     -2137.9694      -1665.9534        218.0004        164.0004
 -16183480.50049 -12599613.26647  21238695.0224   21238696.1664   21238702.1794
      2432.2954       1895.2954        238.0004        203.0004
    456532.46849    365144.17045  24381507.0874   24381508.3464   24381514.2894
     -3771.7364      -2939.0124        209.0004        145.0004
 -12812939.89049  -9969692.59947  20699314.2514   20699315.1274   20699318.5924
      -993.7144       -774.3244        242.0004        211.0004
  -3005297.12449  -2332881.68045  24346968.0844   24346966.3654   24346972.8804
      2221.9834       1731.4114        206.0004        136.0004
 -19254875.24149 -14991718.10647  21644505.0184   21644504.4484   21644509.1604
     -1727.0774      -1345.7654        234.0004        188.0004
 -13161498.00349 -10231145.58546  22678484.8434   22678483.9214   22678488.5314
      2810.7684       2190.2204        225.0004        173.0004
 13  4 22  0  9  0.0000000  0  9G 5G26G29G24G 2G15G18G 9G21
 -11399942.00049  -8839682.17246  22894308.2934   22894308.2594   22894312.9174
     -1503.2104      -1171.3194        229.0004        181.0004
 -15275148.18049 -11293539.33146  22177703.1304   22177702.7924   22177708.4964
     -2990.2774      -2330.0664        227.0004        175.0004
  -4936003.32549  -3827390.65146  23324086.3904   23324085.7274   23324091.2674
     -2142.8884      -1669.7744        218.0004        163.0004
 -16256241.98949 -12656310.50347  21224849.3704   21224849.8884   21224856.1774
      2418.5164       1884.5594        239.0004        204.0004
    569730.14849    453349.91945  24403046.5274   24403048.3414   24403057.1784
     -3774.8544      -2941.4284        203.0004        143.0004
 -12783003.53349  -9946365.58147  20705010.8614   20705011.7864   20705015.3234
     -1002.0324       -780.8054        241.0004        211.0004
  -3072002.30749  -2384859.69345  24334273.1184   24334272.8484   24334278.7114
      2225.1124       1733.8544        205.0004        138.0004
 -19202775.80549 -14951121.18847  21654418.5454   21654418.8764   21654423.9154
     -1746.2174      -1360.6954        233.0004        189.0004
 -13245680.30649 -10296742.14646  22662466.3824   22662464.1994   22662468.5634
      2801.3704       2182.8984        226.0004        173.0004
 13  4 22  0  9 30.0000000  0  9G 5G26G29G24G 2G15G18G 9G21
 -11354761.24149  -8804476.41146  22902905.5804   22902905.5654   22902910.0514
     -1508.8124      -1175.7054        227.0004        180.0004
 -15185391.88149 -11223599.43546  22194783.5444   22194782.6674   22194789.0454
     -2993.4504      -2332.5694        228.0004        175.0004
  -4871644.75449  -3777241.14346  23336333.1014   23336333.5324   23336337.7554
     -2147.6364      -1673.4824        217.0004        163.0004
 -16328589.51449 -12712685.17247  21211082.1034   21211082.6744   21211088.9974
      2404.6264       1873.7334        239.0004        204.0004
    683016.42049    541624.65745  24424604.4924   24424604.9444   24424612.8464
     -3777.7014      -2943.6574        200.0004        141.0004
 -12752820.65349  -9922846.47047  20710754.3294   20710755.3924   20710759.2824
     -1010.1824       -787.1544        242.0004        211.0004
  -3138802.57949  -2436911.80745  24321562.1264   24321560.7384   24321567.1334
      2228.2734       1736.3194        206.0004        138.0004
 -19150103.99649 -14910078.28347  21664441.5784   21664442.1784   21664446.9434
     -1765.2404      -1375.5084        234.0004        190.0004
 -13329579.86449 -10362118.38546  22646499.9124   22646499.5254   22646503.5714
      2791.9494       2175.5534        226.0004        174.0004
 13  4 22  0 10  0.0000000  0  9G 5G26G29G24G 2G15G18G 9G21
 -11309412.62549  -8769139.84846  22911534.6924   22911535.4994   22911539.5824
     -1514.4384      -1180.0714        227.0004        179.0004
 -15095540.25449 -11153585.25146  22211882.1384   22211881.8554   22211886.5764
     -2996.6234      -2335.0354        228.0004        175.0004
  -4807144.44349  -3726981.18446  23348606.9744   23348606.5204   23348612.3714
     -2152.3064      -1677.1254        217.0004        163.0004
 -16400520.23649 -12768735.06547  21197394.1164   21197394.7594   21197400.8544
      2390.7304       1862.9084        240.0004        204.0004
    796388.54349    629966.30245  24446181.8804   24446182.1954   24446188.1744
     -3780.4214      -2945.7794        207.0004        144.0004
 -12722392.84749  -9899136.50647  20716544.8064   20716545.5054   20716548.9114
     -1018.3314       -793.5034        241.0004        210.0004
  -3205697.38449  -2489037.57145  24308831.8364   24308831.9014   24308835.3484
      2231.4424       1738.7824        204.0004        137.0004
 -19096861.96849 -14868591.04747  21674572.7084   21674573.5844   21674578.6364
     -1784.2204      -1390.2984        233.0004        189.0004
 -13413194.18449 -10427272.36546  22630588.6224   22630588.5654   22630592.2734
      2782.3684       2168.0984        225.0004        174.0004
 13  4 22  0 10 30.0000000  0  9G 5G26G29G24G 2G15G18G 9G21
 -11263895.69249  -8733672.15046  22920196.4484   22920197.2154   22920201.6444
     -1520.0534      -1184.4504        228.0004        179.0004
 -15005595.50149 -11083498.50646  22228997.5104   22228997.5684   22229003.0294
     -2999.7264      -2337.4534        227.0004        173.0004
  -4742505.17449  -3676612.96145  23360907.3344   23360908.0034   23360912.0154
     -2156.9544      -1680.7474        217.0004        162.0004
 -16472031.78249 -12824458.32847  21183786.5474   21183786.4244   21183792.4234
      2376.7124       1851.9884        239.0004        204.0004
    909844.23449    718373.05145  24467769.0674   24467770.1184   24467776.4934
     -3783.1814      -2947.9204        208.0004        140.0004
 -12691721.96349  -9875237.13047  20722380.8904   20722382.0504   20722385.6774
     -1026.3864       -799.7814        241.0004        211.0004
  -3272686.30949  -2541236.68645  24296084.6214   24296084.2414   24296090.0844
      2234.5584       1741.2164        206.0004        139.0004
 -19043051.61749 -14826660.96647  21684813.3494   21684813.3224   21684818.6054
     -1803.1324      -1405.0364        233.0004        188.0004
 -13496520.67949 -10492202.05946  22614731.8084   22614730.9824   22614735.5914
      2772.7114       2160.5564        224.0004        172.0004
 13  4 22  0 11  0.0000000  0  9G 5G26G29G24G 2G15G18G 9G21
 -11218209.59349  -8698072.63546  22928889.7374   22928891.1024   22928894.6674
     -1525.6874      -1188.8354        228.0004        180.0004
 -14915559.84449 -11013340.93246  22246130.1604   22246130.5714   22246135.8114
     -3002.6974      -2339.7614        225.0004        172.0004
  -4677730.10849  -3626138.90146  23373233.9404   23373234.8604   23373238.3594
     -2161.3774      -1684.1914        218.0004        164.0004
 -16543121.62249 -12879852.99047  21170258.3734   21170258.5064   21170264.3164
      2362.6334       1841.0134        239.0004        204.0004
   1023380.21649    806842.37645  24489374.8884   24489374.5924   24489381.0454
     -3785.8434      -2949.9974        197.0004        141.0004
 -12660809.93449  -9851149.85047  20728263.7474   20728264.6694   20728268.2674
     -1034.3764       -806.0084        241.0004        211.0004
  -3339769.77949  -2593509.46645  24283319.5834   24283318.4424   24283324.1164
      2237.6614       1743.6334        208.0004        140.0004
 -18988674.73749 -14784289.42547  21695160.3184   21695160.8664   21695166.4684
     -1821.9894      -1419.7284        232.0004        188.0004
 -13579556.77349 -10556905.45946  22598930.7714   22598930.8144   22598934.2574
      2763.0124       2152.9934        224.0004        173.0004
 13  4 22  0 11 30.0000000  0  9G 5G26G29G24G 2G15G18G 9G21
 -11172353.52449  -8662340.68646  22937616.3464   22937617.0154   22937620.9874
     -1531.3774      -1193.2864        227.0004        181.0004
 -14825435.50649 -10943114.23846  22263279.9254   22263280.2554   22263286.6734
     -3005.6604      -2342.0934        223.0004        170.0004
  -4612822.05349  -3575561.23246  23385585.2234   23385585.8254   23385589.8544
     -2165.7814      -1687.6164        221.0004        164.0004
 -16613787.63049 -12934917.38647  21156811.0054   21156811.1214   21156816.9654
      2348.4564       1829.9664        239.0004        204.0004
   1136995.28449    895373.34345  24510995.3124   24510995.3874   24511003.1174
     -3788.4264      -2952.0104        203.0004        140.0004
 -12629658.56049  -9826876.06547  20734191.4744   20734192.2374   20734196.1044
     -1042.3544       -812.2254        241.0004        211.0004
  -3406947.32949  -2645855.56345  24270536.2504   24270534.8524   24270541.0984
      2240.7744       1746.0634        208.0004        141.0004
 -18933733.17249 -14741477.86247  21705615.8834   21705615.8194   21705621.0594
     -1840.7934      -1434.3854        233.0004        189.0004
 -13662299.61949 -10621380.36346  22583184.8854   22583184.5184   22583187.8824
      2753.1884       2145.3334        224.0004        174.0004
 13  4 22  0 12  0.0000000  0  9G 5G26G29G24G 2G15G18G 9G21
 -11126327.19149  -8626476.06246  22946375.0884   22946375.9264   22946379.5214
     -1537.0764      -1197.7214        227.0004        180.0004
 -14735224.67149 -10872820.17546  22280446.4844   22280447.2024   22280453.1934
     -3008.4684      -2344.2574        224.0004        170.0004
  -4547783.93949  -3524882.20846  23397961.7984   23397961.6504   23397966.3874
     -2170.0804      -1690.9794        218.0004        163.0004
 -16684026.95049 -12989649.30747  21143444.8164   21143444.8784   21143451.0864
      2334.1814       1818.8434        240.0004        205.0004
   1250686.51349    983963.63145  24532630.6954   24532631.0584   24532640.4574
     -3790.9634      -2953.9834        203.0004        140.0004
 -12598269.59849  -9802417.15247  20740164.8334   20740165.5144   20740169.4584
     -1050.2614       -818.3854        241.0004        211.0004
  -3474218.76749  -2698274.82245  24257734.8034   24257734.7904   24257739.5074
      2243.8944       1748.4854        210.0004        141.0004
 -18878228.99349 -14698227.89447  21716177.7394   21716178.1764   21716183.1604
     -1859.4954      -1448.9554        232.0004        189.0004
 -13744746.72049 -10685624.82546  22567495.4544   22567495.2244   22567499.5894
      2743.2724       2137.6314        225.0004        175.0004
 13  4 22  0 12 30.0000000  0  9G 5G26G29G24G 2G15G18G 9G21
 -11080129.48349  -8590477.88646  22955166.4044   22955166.8194   22955171.0004
     -1542.7504      -1202.1584        227.0004        179.0004
 -14644929.55749 -10802460.42746  22297629.5714   22297629.6554   22297636.3084
     -3011.1974      -2346.3744        226.0004        170.0004
  -4482618.94649  -3474104.30546  23410363.1114   23410361.8784   23410366.9304
     -2174.2794      -1694.2484        218.0004        164.0004
 -16753837.22149 -13044046.90647  21130160.4844   21130160.7034   21130166.7774
      2319.8474       1807.6764        240.0004        205.0004
   1364451.22649   1072611.18645  24554277.9744   24554279.5834   24554285.4304
     -3793.3704      -2955.8614        200.0004        139.0004
 -12566644.62249  -9777774.32947  20746182.8054   20746183.6534   20746186.9664
     -1058.0774       -824.4764        241.0004        210.0004
  -3541583.73249  -2750766.96545  24244915.4924   24244913.4714   24244921.2424
      2247.0394       1750.9364        211.0004        143.0004
 -18822164.41049 -14654541.24747  21726847.1054   21726846.9884   21726852.6184
     -1878.1444      -1463.4764        233.0004        188.0004
 -13826895.62849 -10749636.91546  22551863.3704   22551862.4904   22551866.9844
      2733.2954       2129.8544        225.0004        175.0004
 13  4 22  0 13  0.0000000  0  9G 5G26G29G24G 2G15G18G 9G21
 -11033760.12949  -8554345.96146  22963990.2104   22963990.4384   22963994.9094
     -1548.5354      -1206.6354        226.0004        180.0004
 -14554552.30249 -10732036.65146  22314828.0804   22314828.0314   22314834.0164
     -3013.9324      -2348.5014        224.0004        169.0004
  -4417330.06049  -3423229.87746  23422786.4474   23422786.6514   23422791.1344
     -2178.3464      -1697.4084        218.0004        165.0004
 -16823216.36649 -13098108.56347  21116957.6534   21116958.0174   21116964.5164
      2305.4044       1796.4214        239.0004        205.0004
   1478287.00549   1161314.12545  24575941.5144   24575940.2244   24575949.4064
     -3795.7544      -2957.7254        198.0004        138.0004
 -12534785.77649  -9752949.26647  20752245.7604   20752246.2854   20752249.6594
     -1065.8224       -830.5094        242.0004        210.0004
  -3609041.83549  -2803331.67545  24232079.3994   24232079.0894   24232083.3084
      2250.1214       1753.3304        213.0004        143.0004
 -18765541.33449 -14610419.40447  21737622.0014   21737621.7334   21737626.7804
     -1896.7434      -1477.9784        233.0004        188.0004
 -13908743.89249 -10813414.72546  22536287.3724   22536288.3194   22536292.8324
      2723.2024       2121.9774        226.0004        176.0004
 13  4 22  0 13 30.0000000  0  9G 5G26G29G24G 2G15G18G 9G21
 -10987218.19049  -8518079.56346  22972846.7014   22972846.8614   22972851.2834
     -1554.2724      -1211.1184        226.0004        180.0004
 -14464095.05849 -10661550.57146  22332041.6354   22332042.3684   22332048.0734
     -3016.5954      -2350.5634        225.0004        170.0004
  -4351920.06049  -3372261.07146  23435233.5844   23435233.2964   23435238.1254
     -2182.3534      -1700.5334        220.0004        164.0004
 -16892161.52849 -13151832.05547  21103837.3484   21103837.9284   21103844.8664
      2290.9284       1785.1454        239.0004        206.0004
   1592191.24849   1250070.37845  24597617.2774   24597616.8024   24597623.8994
     -3797.8844      -2959.3804        201.0004        138.0004
 -12502694.87449  -9727943.39047  20758352.2824   20758352.8784   20758356.4334
     -1073.5224       -836.5084        242.0004        210.0004
  -3676593.21249  -2855969.07645  24219222.6834   24219222.8464   24219230.4394
      2253.2554       1755.7824        211.0004        145.0004
 -18708361.71949 -14565863.90547  21748503.2484   21748502.8044   21748508.3674
     -1915.2484      -1492.4064        234.0004        188.0004
 -13990288.79949 -10876956.17246  22520769.8504   22520770.3744   22520775.2544
      2713.0794       2114.0804        226.0004        177.0004
 13  4 22  0 14  0.0000000  0  9G 5G26G29G24G 2G15G18G 9G21
 -10940503.16349  -8481678.29946  22981736.3494   22981736.6384   22981741.4284
     -1560.0674      -1215.6384        226.0004        181.0004
 -14373560.08449 -10591003.88746  22349271.2454   22349271.4764   22349276.2394
     -3019.1344      -2352.5804        227.0004        172.0004
  -4286392.11449  -3321200.35646  23447704.0454   23447703.9944   23447707.6034
     -2186.1984      -1703.5224        220.0004        165.0004
 -16960670.37649 -13205215.56147  21090800.4014   21090801.2904   21090807.7124
      2276.3064       1773.7434        240.0004        206.0004
   1706161.77149   1338878.30745  24619305.2754   24619307.5074   24619315.1964
     -3800.1174      -2961.1214        202.0004        138.0004
 -12470373.57749  -9702757.97847  20764502.6604   20764503.0904   20764507.0934
     -1081.2244       -842.5124        241.0004        210.0004
  -3744237.20249  -2908678.65245  24206352.1464   24206351.0664   24206355.3384
      2256.2624       1758.1294        210.0004        144.0004
 -18650627.74749 -14520876.43747  21759490.5054   21759489.7284   21759494.8194
     -1933.7224      -1506.7924        234.0004        188.0004
 -14071527.88849 -10940259.30846  22505310.7104   22505311.2524   22505315.6254
      2702.8514       2106.1264        226.0004        176.0004
 13  4 22  0 14 30.0000000  0  9G 5G26G29G24G 2G15G18G 9G21
 -10893614.49249  -8445141.72746  22990659.2084   22990659.4554   22990664.3304
     -1565.8524      -1220.1314        227.0004        182.0004
 -14282949.48649 -10520398.28746  22366513.6804   22366514.0224   22366519.1814
     -3021.6254      -2354.4864        228.0004        175.0004
  -4220749.13149  -3270050.00346  23460195.1834   23460194.5374   23460199.1534
     -2189.9834      -1706.4834        219.0004        165.0004
 -17028740.87049 -13258257.50547  21077847.1844   21077848.2414   21077854.1454
      2261.6834       1762.3504        240.0004        206.0004
   1820196.22449   1427736.07145  24641003.7214   24641005.3794   24641011.5134
     -3802.1784      -2962.7284        200.0004        137.0004
 -12437823.87249  -9677394.59047  20770697.3174   20770697.4204   20770701.0854
     -1088.7324       -848.3674        242.0004        210.0004
  -3811973.84949  -2961460.40045  24193462.4144   24193460.8024   24193466.4804
      2259.5294       1760.6864        213.0004        145.0004
 -18592341.42949 -14475458.57547  21770581.6574   21770581.0654   21770586.4144
     -1952.0464      -1521.0754        233.0004        188.0004
 -14152458.38949 -11003321.98946  22489910.7314   22489911.0014   22489914.4764
      2692.5264       2098.0714        227.0004        177.0004
 13  4 22  0 15  0.0000000  0  9G 5G26G29G24G 2G15G18G 9G21
 -10846551.34249  -8408469.18946  22999615.0554   22999615.3354   22999620.4414
     -1571.6934      -1224.6754        228.0004        182.0004
 -14192265.29749 -10449735.34946  22383770.3534   22383769.8884   22383775.9614
     -3024.0224      -2356.3694        228.0004        175.0004
  -4154993.98049  -3218812.23646  23472707.8184   23472706.8634   23472712.6064
     -2193.6704      -1709.3444        219.0004        166.0004
 -17096370.36949 -13310955.80747  21064978.2374   21064979.0434   21064984.9144
      2246.9474       1750.8724        240.0004        206.0004
   1934291.36649   1516641.10345  24662718.1684   24662716.9394   24662726.3914
     -3804.2194      -2964.3214        203.0004        138.0004
 -12405047.20749  -9651854.34347  20776934.5834   20776934.6244   20776938.1954
     -1096.3244       -854.2754        242.0004        209.0004
  -3879802.65149  -3014313.95445  24180555.0454   24180553.4214   24180559.9884
      2262.5294       1763.0124        215.0004        144.0004
 -18533504.83549 -14429611.91847  21781777.7054   21781777.1674   21781783.1314
     -1970.3744      -1535.3504        233.0004        188.0004
 -14233077.72049 -11066142.20746  22474570.0594   22474569.3014   22474573.1254
      2682.0824       2089.9434        228.0004        177.0004
 13  4 22  0 15 30.0000000  0  9G 5G26G29G24G 2G15G18G 9G21
 -10799313.38449  -8371660.43046  23008603.4744   23008603.6644   23008608.9644
     -1577.5084      -1229.2154        225.0004        180.0004
 -14101509.70949 -10379016.78746  22401040.7844   22401040.0604   22401045.3784
     -3026.3884      -2358.2144        228.0004        174.0004
  -4089129.82249  -3167489.53646  23485240.5774   23485240.8934   23485245.6284
     -2197.2854      -1712.1674        220.0004        166.0004
 -17163556.67349 -13363308.76447  21052192.6284   21052193.6994   21052199.3104
      2232.1344       1739.3244        240.0004        207.0004
   2048445.49649   1605592.07645  24684441.7804   24684441.1344   24684449.2054
     -3806.0784      -2965.7734        202.0004        137.0004
 -12372045.46749  -9626138.72047  20783214.8484   20783214.4914   20783218.4714
     -1103.7994       -860.1034        241.0004        210.0004
  -3947723.33149  -3067239.09545  24167630.1124   24167628.8524   24167633.7804
      2265.5164       1765.3404        213.0004        144.0004
 -18474120.27949 -14383338.29146  21793077.8204   21793077.5164   21793083.0304
     -1988.5604      -1549.5264        232.0004        187.0004
 -14313383.45149 -11128718.07446  22459287.7964   22459287.1094   22459291.5224
      2671.6004       2081.7424        228.0004        176.0004
 13  4 22  0 16  0.0000000  0  9G 5G26G29G24G 2G15G18G 9G21
 -10751899.48849  -8334714.56646  23017625.6404   23017626.9044   23017631.9444
     -1583.3864      -1233.8044        225.0004        180.0004
 -14010684.79349 -10308244.19546  22418324.0164   22418324.4194   22418329.6494
     -3028.6424      -2359.9734        228.0004        175.0004
  -4023159.56449  -3116084.16946  23497793.7964   23497794.3944   23497799.2994
     -2200.7544      -1714.8644        218.0004        166.0004
 -17230297.40549 -13415314.51947  21039492.3604   21039493.4534   21039499.1184
      2217.2274       1727.7064        240.0004        207.0004
   2162656.08049   1694587.06245  24706176.1994   24706176.6084   24706179.6694
     -3807.9744      -2967.2434        204.0004        135.0004
 -12338820.57349  -9600249.20747  20789537.3014   20789537.3914   20789540.9314
     -1111.1964       -865.8634        242.0004        209.0004
  -4015735.71949  -3120235.71145  24154686.1204   24154686.4484   24154692.3014
      2268.5864       1767.7234        213.0004        144.0004
 -18414189.78349 -14336639.25746  21804482.1734   21804481.9194   21804487.8364
     -2006.7734      -1563.7104        232.0004        186.0004
 -14393372.99449 -11191047.53546  22444064.8184   22444065.1864   22444069.5024
      2660.9994       2073.5044        225.0004        175.0004
 13  4 22  0 16 30.0000000  0  9G 5G26G29G24G 2G15G18G 9G21
 -10704309.33849  -8297631.37346  23026682.0284   23026682.9824   23026687.4484
     -1589.2544      -1238.3534        226.0004        178.0004
 -13919792.66749 -10237419.24646  22435620.7934   22435619.8684   22435625.5154
     -3030.8604      -2361.6924        228.0004        175.0004
  -3957085.99349  -3064598.30546  23510366.1404   23510367.9894   23510373.0864
     -2204.1434      -1717.5174        219.0004        167.0004
 -17296590.01549 -13466971.08947  21026877.4534   21026878.1064   21026883.8524
      2202.2734       1716.0614        241.0004        207.0004
   2276920.24349   1783623.78445  24727919.1994   24727917.7934   24727926.6744
     -3809.7464      -2968.6194        207.0004        137.0004
 -12305374.56649  -9574187.39047  20795902.1464   20795901.9694   20795905.4074
     -1118.5254       -871.5744        243.0004        210.0004
  -4083839.24449  -3173303.32345  24141727.0354   24141726.0344   24141733.4864
      2271.6394       1770.1054        213.0004        145.0004
 -18353715.65049 -14289516.61146  21815989.6534   21815989.6504   21815995.2204
     -2024.8474      -1577.8024        231.0004        184.0004
 -14473043.79949 -11253128.64446  22428903.4674   22428903.6784   22428909.3234
      2650.3374       2065.1934        224.0004        176.0004
 13  4 22  0 17  0.0000000  0  9G 5G26G29G24G 2G15G18G 9G21
 -10656542.49049  -8260410.48846  23035772.5114   23035773.1194   23035777.0574
     -1595.1664      -1243.0044        227.0004        178.0004
 -13828835.41849 -10166543.54246  22452928.7734   22452927.8614   22452934.7714
     -3032.9694      -2363.3454        226.0004        173.0004
  -3890912.17149  -3013034.32046  23522959.0714   23522959.0144   23522965.6334
     -2207.3724      -1720.0284        218.0004        165.0004
 -17362432.62549 -13518277.00847  21014348.2684   21014348.6334   21014354.3374
      2187.2334       1704.3344        240.0004        207.0004
   2391236.01549   1872700.72645  24749673.2604   24749674.6194   24749679.1754
     -3811.3394      -2969.8714        205.0004        137.0004
 -12271709.17349  -9547954.62747  20802308.4684   20802308.3944   20802311.5774
     -1125.8354       -877.2784        242.0004        209.0004
  -4152033.90449  -3226441.97045  24128748.1484   24128748.3634   24128755.5854
      2274.6604       1772.4574        212.0004        146.0004
 -18292699.89249 -14241971.92446  21827600.3944   21827600.8494   21827606.4794
     -2042.8694      -1591.8464        230.0004        184.0004
 -14552393.24549 -11314959.33846  22413803.9344   22413804.7114   22413809.5154
      2639.6024       2056.8364        225.0004        176.0004
 13  4 22  0 17 30.0000000  0  9G 5G26G29G24G 2G15G18G 9G21
 -10608597.82449  -8223051.05846  23044896.7314   23044896.5454   23044900.6934
     -1601.0914      -1247.6204        228.0004        177.0004
 -13737815.07949 -10095618.68746  22470249.4434   22470250.1294   22470254.1294
     -3035.0614      -2365.0064        226.0004        171.0004
  -3824641.14449  -2961394.61646  23535570.9064   23535572.1364   23535576.5274
     -2210.5944      -1722.5424        221.0004        165.0004
 -17427822.71249 -13569230.31447  21001905.0354   21001905.1674   21001911.3944
      2172.1364       1692.5684        240.0004        207.0004
   2505600.58549   1961815.70545  24771436.4274   24771435.9834   24771441.4644
     -3812.8984      -2971.0794        205.0004        136.0004
 -12237825.42149  -9521551.70847  20808756.3154   20808755.8274   20808759.6164
     -1133.0344       -882.8804        242.0004        209.0004
  -4220319.36649  -3279651.35645  24115756.1214   24115755.9634   24115761.4064
      2277.6904       1774.8164        212.0004        147.0004
 -18231144.71349 -14194006.90146  21839314.1134   21839314.3734   21839319.7474
     -2060.7864      -1605.8134        230.0004        185.0004
 -14631418.91249 -11376537.74246  22398767.5124   22398766.8784   22398771.4434
      2628.7624       2048.3854        227.0004        176.0004
 13  4 22  0 18  0.0000000  0  8G 5G26G29G24G15G18G 9G21
 -10560475.24749  -8185553.00546  23054054.1544   23054054.0274   23054057.8484
     -1607.0704      -1252.2624        227.0004        177.0004
 -13646733.73749 -10024646.29146  22487581.8044   22487581.8304   22487587.3974
     -3037.0314      -2366.5244        226.0004        169.0004
  -3758275.91549  -2909681.51646  23548200.3334   23548200.5604   23548204.4754
     -2213.7354      -1724.9774        220.0004        163.0004
 -17492757.92349 -13619829.17047  20989548.6784   20989548.7054   20989554.5244
      2156.8824       1680.6844        241.0004        207.0004
 -12203725.56749  -9494980.40547  20815245.2454   20815245.0754   20815248.5594
     -1140.2604       -888.5194        242.0004        210.0004
  -4288694.83749  -3332930.87345  24102744.1504   24102743.7924   24102749.1654
      2280.6784       1777.1494        213.0004        148.0004
 -18169052.34749 -14145623.28846  21851130.0954   21851130.5424   21851135.6884
     -2078.6714      -1619.7484        231.0004        184.0004
 -14710118.13649 -11437861.79246  22383791.7274   22383791.5444   22383794.7564
      2617.8264       2039.8734        226.0004        177.0004
 13  4 22  0 18 30.0000000  0  8G 5G26G29G24G15G18G 9G21
 -10512173.73649  -8147915.50846  23063245.2304   23063245.4454   23063250.1504
     -1613.0344      -1256.9014        226.0004        177.0004
 -13555593.43349  -9953627.96446  22504924.8764   22504924.7294   22504930.9044
     -3039.0404      -2368.0804        225.0004        170.0004
  -3691819.26549  -2857897.15446  23560847.8634   23560847.2494   23560852.6834
     -2216.7394      -1727.3364        221.0004        163.0004
 -17557236.08949 -13670071.88747  20977278.8954   20977278.8074   20977284.6154
      2141.6214       1668.8014        242.0004        208.0004
 -12169411.12249  -9468241.88247  20821775.0934   20821774.8544   20821778.4724
     -1147.3854       -894.0614        242.0004        209.0004
  -4357160.40649  -3386280.59545  24089716.4374   24089716.2654   24089721.5034
      2283.6744       1779.4794        215.0004        148.0004
 -18106425.23549 -14096822.98646  21863047.1884   21863047.8794   21863053.2544
     -2096.4794      -1633.6064        231.0004        185.0004
 -14788488.47149 -11498929.56246  22368878.1384   22368877.2564   22368881.9404
      2606.8584       2031.3314        227.0004        176.0004
 13  4 22  0 19  0.0000000  0  8G 5G26G29G24G15G18G 9G21
 -10463693.06149  -8110138.39946  23072471.4334   23072471.1994   23072476.3514
     -1619.0134      -1261.5594        227.0004        180.0004
 -13464396.24049  -9882565.29646  22522279.2944   22522279.4384   22522284.7664
     -3040.8494      -2369.4914        224.0004        170.0004
  -3625274.30449  -2806044.01745  23573510.3664   23573509.7354   23573515.4924
     -2219.6184      -1729.5764        221.0004        162.0004
 -17621255.02249 -13719956.75447  20965096.5074   20965096.2964   20965102.1644
      2126.2834       1656.8434        242.0004        208.0004
 -12134884.53449  -9441338.05447  20828345.4284   20828344.9664   20828348.6234
     -1154.4024       -899.5284        242.0004        209.0004
  -4425715.38449  -3439699.97845  24076670.1064   24076669.2254   24076676.8954
      2286.6924       1781.8324        214.0004        148.0004
 -18043265.49149 -14047607.64346  21875066.2764   21875067.0894   21875072.1554
     -2114.1764      -1647.4054        230.0004        183.0004
 -14866527.15249 -11559738.89346  22354027.8074   22354027.7924   22354030.9474
      2595.7444       2022.6654        226.0004        174.0004
 13  4 22  0 19 30.0000000  0  8G 5G26G29G24G15G18G 9G21
 -10415032.47449  -8072221.08746  23081730.9594   23081730.5114   23081736.0344
     -1625.0194      -1266.2484        227.0004        180.0004
 -13373144.11049  -9811459.82946  22539643.3594   22539643.3774   22539649.9354
     -3042.6244      -2370.8824        223.0004        169.0004
  -3558644.17349  -2754124.47445  23586188.7314   23586189.2894   23586193.8604
     -2222.4194      -1731.7484        220.0004        161.0004
 -17684812.55449 -13769482.08447  20953001.7394   20953001.7374   20953007.8074
      2110.8684       1644.8334        242.0004        209.0004
 -12100147.29849  -9414270.08747  20834954.9274   20834955.1254   20834958.9654
     -1161.4104       -904.9924        241.0004        208.0004
  -4494359.69949  -3493188.98545  24063607.6874   24063606.8154   24063612.8914
      2289.6294       1784.1374        213.0004        148.0004
 -17979575.56149 -13997979.17246  21887185.9844   21887186.5664   21887192.0974
     -2131.7624      -1661.1044        231.0004        183.0004
 -14944231.85749 -11620287.97746  22339240.6464   22339239.8694   22339244.5884
      2584.5364       2013.9114        226.0004        174.0004
 13  4 22  0 20  0.0000000  0  8G 5G26G29G24G15G18G 9G21
 -10366191.08749  -8034162.91346  23091024.7674   23091025.2654   23091030.8514
     -1631.0574      -1270.9514        226.0004        180.0004
 -13281839.07249  -9740313.12546  22557017.5124   22557017.6654   22557025.0664
     -3044.3944      -2372.2604        220.0004        166.0004
  -3491931.46349  -2702140.60845  23598883.2284   23598885.2464   23598890.9034
     -2225.1514      -1733.8794        219.0004        161.0004
 -17747906.27149 -13818646.00747  20940994.8144   20940995.4674   20941001.3124
      2095.3844       1632.7674        241.0004        209.0004
 -12065201.12649  -9387039.31147  20841605.2394   20841605.3524   20841608.8664
     -1168.3434       -910.3954        242.0004        208.0004
  -4563093.05049  -3546747.34245  24050527.4854   24050527.0964   24050532.7404
      2292.5744       1786.4254        214.0004        148.0004
 -17915357.47949 -13947939.16246  21899406.5704   21899407.0814   21899412.4864
     -2149.3704      -1674.8324        231.0004        184.0004
 -15021599.96749 -11680574.78046  22324518.8104   22324518.3234   22324521.3294
      2573.2954       2005.1654        228.0004        174.0004
 13  4 22  0 20 30.0000000  0  8G 5G26G29G24G15G18G 9G21
 -10317168.77449  -7995963.74346  23100352.6564   23100353.2284   23100359.6534
     -1637.0964      -1275.6574        224.0004        180.0004
 -13190483.05549  -9669126.70446  22574402.1364   22574402.7374   22574408.9384
     -3046.0384      -2373.5394        220.0004        166.0004
  -3425139.06749  -2650094.63245  23611593.1614   23611594.4214   23611598.9684
     -2227.7244      -1735.9034        217.0004        159.0004
 -17810533.89649 -13867446.74147  20929077.3884   20929077.8694   20929083.8384
      2079.8254       1620.6454        242.0004        209.0004
 -12030047.53549  -9359646.91447  20848294.6484   20848294.9534   20848298.3054
     -1175.2174       -915.7554        242.0004        208.0004
  -4631914.75249  -3600374.57845  24037429.6244   24037432.2434   24037437.3374
      2295.5014       1788.7034        213.0004        148.0004
 -17850613.63149 -13897489.46446  21911727.5464   21911727.6924   21911732.9484
     -2166.8584      -1688.4664        233.0004        185.0004
 -15098628.75849 -11740597.17846  22309861.2824   22309860.0304   22309864.1724
      2561.9734       1996.3424        228.0004        176.0004
 13  4 22  0 21  0.0000000  0  8G 5G26G29G24G15G18G 9G21
 -10267964.87949  -7957623.08746  23109715.4694   23109716.3944   23109722.5644
     -1643.1584      -1280.3974        223.0004        179.0004
 -13099078.13349  -9597902.19446  22591796.6594   22591797.4384   22591803.7434
     -3047.6384      -2374.7794        222.0004        167.0004
  -3358269.84849  -2597988.79845  23624319.2444   23624319.3434   23624324.9704
     -2230.2084      -1737.8174        217.0004        159.0004
 -17872693.65549 -13915882.90147  20917248.7414   20917249.3164   20917255.3214
      2064.1594       1608.4404        241.0004        209.0004
 -11994688.56249  -9332094.47847  20855022.8244   20855023.2144   20855027.0254
     -1182.0294       -921.0584        241.0004        208.0004
  -4700824.47349  -3654070.38845  24024317.6064   24024316.8724   24024323.2364
      2298.4504       1790.9994        212.0004        148.0004
 -17785346.43149 -13846631.95846  21924148.2824   21924147.8184   21924152.9184
     -2184.2884      -1702.0454        234.0004        186.0004
 -15175316.20949 -11800353.60446  22295267.5744   22295266.9204   22295270.3524
      2550.5514       1987.4464        229.0004        177.0004
 13  4 22  0 21 30.0000000  0  8G 5G26G29G24G15G18G 9G21
 -10218578.62249  -7919140.33646  23119113.3284   23119114.2944   23119120.2744
     -1649.2694      -1285.1484        223.0004        178.0004
 -13007626.27049  -9526641.09146  22609199.8754   22609200.6944   22609205.6524
     -3049.1904      -2375.9864        221.0004        166.0004
  -3291327.16149  -2545825.71045  23637057.5654   23637058.1734   23637062.5794
     -2232.6214      -1739.6954        216.0004        157.0004
 -17934383.17949 -13963952.64347  20905509.1214   20905509.9494   20905516.2814
      2048.4674       1596.2094        241.0004        209.0004
 -11959125.91149  -9304383.33547  20861789.8524   20861790.5224   20861793.9274
     -1188.8024       -926.3334        241.0004        208.0004
  -4769821.83749  -3707834.49645  24011188.4724   24011188.2494   24011193.0214
      2301.3844       1793.2854        212.0004        149.0004
 -17719558.38049 -13795368.58646  21936667.6064   21936667.3074   21936672.0364
     -2201.6214      -1715.5504        234.0004        186.0004
 -15251659.38749 -11859841.75046  22280740.0834   22280739.1944   22280742.2584
      2539.0034       1978.4424        229.0004        177.0004
 13  4 22  0 22  0.0000000  0  8G 5G26G29G24G15G18G 9G21
 -10169009.48449  -7880515.09346  23128546.4584   23128547.5834   23128552.5194
